[
  {
    "name": "富良野スキー場",
    "skiID": 1,
    "latitude": 43.324792,
    "longitude": 142.3541742,
    "region": "北海道",
    "url": "https://surfsnow.jp/guide/htm/r0118s.htm"
  },
  {
    "name": "星野リゾート トマム スキー場",
    "skiID": 2,
    "latitude": 43.06938641,
    "longitude": 142.614994,
    "region": "北海道",
    "url": "https://surfsnow.jp/guide/htm/r0274s.htm"
  },
  {
    "name": "サッポロテイネ",
    "skiID": 3,
    "latitude": 43.07830023,
    "longitude": 141.2005857,
    "region": "北海道",
    "url": "https://surfsnow.jp/guide/htm/r0065s.htm"
  },
  {
    "name": "さっぽろばんけいスキー場",
    "skiID": 4,
    "latitude": 43.0307009,
    "longitude": 141.2780381,
    "region": "北海道",
    "url": "https://surfsnow.jp/guide/htm/r0246s.htm"
  },
  {
    "name": "ニセコ東急 グラン・ヒラフ",
    "skiID": 5,
    "latitude": 42.86455054,
    "longitude": 140.7013293,
    "region": "北海道",
    "url": "https://surfsnow.jp/guide/htm/r0148s.htm"
  },
  {
    "name": "ニセコビレッジスキーリゾート",
    "skiID": 6,
    "latitude": 42.84716666,
    "longitude": 140.6842692,
    "region": "北海道",
    "url": "https://surfsnow.jp/guide/htm/r0119s.htm"
  },
  {
    "name": "ニセコアンヌプリ国際スキー場",
    "skiID": 7,
    "latitude": 42.84766036,
    "longitude": 140.6478326,
    "region": "北海道",
    "url": "https://surfsnow.jp/guide/htm/r0260s.htm"
  },
  {
    "name": "SNOW CRUISE ONZE",
    "skiID": 8,
    "latitude": 43.14645037,
    "longitude": 141.1332546,
    "region": "北海道",
    "url": "https://surfsnow.jp/guide/htm/r0174s.htm"
  },
  {
    "name": "KIRORO SNOW WORLD",
    "skiID": 9,
    "latitude": 43.05877432,
    "longitude": 141.0273072,
    "region": "北海道",
    "url": "https://surfsnow.jp/guide/htm/r0030s.htm"
  },
  {
    "name": "朝里川温泉スキー場",
    "skiID": 10,
    "latitude": 43.14370298,
    "longitude": 141.0368432,
    "region": "北海道",
    "url": "https://surfsnow.jp/guide/htm/r0249s.htm"
  },
  {
    "name": "小樽天狗山スキー場",
    "skiID": 11,
    "latitude": 43.17768161,
    "longitude": 140.9752593,
    "region": "北海道",
    "url": "https://surfsnow.jp/guide/htm/r0259s.htm"
  },
  {
    "name": "マウントレースイスキー場",
    "skiID": 12,
    "latitude": 43.05146705,
    "longitude": 141.9694487,
    "region": "北海道",
    "url": "https://surfsnow.jp/guide/htm/r0213s.htm"
  },
  {
    "name": "函館七飯スノーパーク",
    "skiID": 13,
    "latitude": 41.98710962,
    "longitude": 140.7469594,
    "region": "北海道",
    "url": "https://surfsnow.jp/guide/htm/r0120s.htm"
  },
  {
    "name": "サホロリゾートスキー場",
    "skiID": 14,
    "latitude": 43.1748517,
    "longitude": 142.8081852,
    "region": "北海道",
    "url": "https://surfsnow.jp/guide/htm/r0330s.htm"
  },
  {
    "name": "ルスツリゾート",
    "skiID": 15,
    "latitude": 42.75137031,
    "longitude": 140.8988474,
    "region": "北海道",
    "url": "https://surfsnow.jp/guide/htm/r0331s.htm"
  },
  {
    "name": "札幌国際スキー場",
    "skiID": 16,
    "latitude": 43.0723938,
    "longitude": 141.0827771,
    "region": "北海道",
    "url": "https://surfsnow.jp/guide/htm/r0602s.htm"
  },
  {
    "name": "カムイスキーリンクス",
    "skiID": 17,
    "latitude": 43.70515702,
    "longitude": 142.1871288,
    "region": "北海道",
    "url": "https://surfsnow.jp/guide/htm/r0604s.htm"
  },
  {
    "name": "ぬかびら源泉郷スキー場",
    "skiID": 18,
    "latitude": 43.3640736,
    "longitude": 143.1869973,
    "region": "北海道",
    "url": "https://surfsnow.jp/guide/htm/r0606s.htm"
  },
  {
    "name": "ぴっぷスキー場",
    "skiID": 19,
    "latitude": 43.93324561,
    "longitude": 142.4998041,
    "region": "北海道",
    "url": "https://surfsnow.jp/guide/htm/r0608s.htm"
  },
  {
    "name": "かもい岳スキー場",
    "skiID": 20,
    "latitude": 43.52076134,
    "longitude": 142.0192048,
    "region": "北海道",
    "url": "https://surfsnow.jp/guide/htm/r0609s.htm"
  },
  {
    "name": "札幌藻岩山スキー場",
    "skiID": 21,
    "latitude": 43.0124923,
    "longitude": 141.3331811,
    "region": "北海道",
    "url": "https://surfsnow.jp/guide/htm/r0612s.htm"
  },
  {
    "name": "IWANAI RESORT（旧：ニセコいわない国際スキー場）",
    "skiID": 22,
    "latitude": 42.94727159,
    "longitude": 140.5146616,
    "region": "北海道",
    "url": "https://surfsnow.jp/guide/htm/r0614s.htm"
  },
  {
    "name": "中頓別町寿スキー場",
    "skiID": 23,
    "latitude": 44.99300673,
    "longitude": 142.2881166,
    "region": "北海道",
    "url": "https://surfsnow.jp/guide/htm/r0617s.htm"
  },
  {
    "name": "枝幸町三笠山スキー場",
    "skiID": 24,
    "latitude": 44.93364952,
    "longitude": 142.5646222,
    "region": "北海道",
    "url": "https://surfsnow.jp/guide/htm/r0618s.htm"
  },
  {
    "name": "名寄ピヤシリスキー場",
    "skiID": 25,
    "latitude": 44.40451661,
    "longitude": 142.5134132,
    "region": "北海道",
    "url": "https://surfsnow.jp/guide/htm/r0621s.htm"
  },
  {
    "name": "紋別市営大山スキー場",
    "skiID": 26,
    "latitude": 44.34809011,
    "longitude": 143.3326426,
    "region": "北海道",
    "url": "https://surfsnow.jp/guide/htm/r0623s.htm"
  },
  {
    "name": "士別市 日向スキー場",
    "skiID": 27,
    "latitude": 44.26571102,
    "longitude": 142.343853,
    "region": "北海道",
    "url": "https://surfsnow.jp/guide/htm/r0624s.htm"
  },
  {
    "name": "士別市あさひスキー場",
    "skiID": 28,
    "latitude": 44.12559373,
    "longitude": 142.5956959,
    "region": "北海道",
    "url": "https://surfsnow.jp/guide/htm/r0625s.htm"
  },
  {
    "name": "ほろたちスキー場",
    "skiID": 29,
    "latitude": 44.01545404,
    "longitude": 142.1356062,
    "region": "北海道",
    "url": "https://surfsnow.jp/guide/htm/r0628s.htm"
  },
  {
    "name": "上川町営中山スキー場",
    "skiID": 30,
    "latitude": 43.85193983,
    "longitude": 142.7805384,
    "region": "北海道",
    "url": "https://surfsnow.jp/guide/htm/r0629s.htm"
  },
  {
    "name": "大雪山 黒岳スキー場",
    "skiID": 31,
    "latitude": 43.7108954,
    "longitude": 142.9388686,
    "region": "北海道",
    "url": "https://surfsnow.jp/guide/htm/r0630s.htm"
  },
  {
    "name": "とうま山スキー場",
    "skiID": 32,
    "latitude": 43.83666348,
    "longitude": 142.5383863,
    "region": "北海道",
    "url": "https://surfsnow.jp/guide/htm/r0631s.htm"
  },
  {
    "name": "キャンモアスキービレッジ",
    "skiID": 33,
    "latitude": 43.73054468,
    "longitude": 142.5389258,
    "region": "北海道",
    "url": "https://surfsnow.jp/guide/htm/r0632s.htm"
  },
  {
    "name": "サンタプレゼントパーク マロースゲレンデ",
    "skiID": 34,
    "latitude": 43.76109615,
    "longitude": 142.3026753,
    "region": "北海道",
    "url": "https://surfsnow.jp/guide/htm/r0635s.htm"
  },
  {
    "name": "沼田町営高穂スキー場",
    "skiID": 35,
    "latitude": 43.82092145,
    "longitude": 141.9631316,
    "region": "北海道",
    "url": "https://surfsnow.jp/guide/htm/r0636s.htm"
  },
  {
    "name": "暑寒別岳スキー場",
    "skiID": 36,
    "latitude": 43.80982073,
    "longitude": 141.5289254,
    "region": "北海道",
    "url": "https://surfsnow.jp/guide/htm/r0638s.htm"
  },
  {
    "name": "中富良野北星スキー場",
    "skiID": 37,
    "latitude": 43.41173707,
    "longitude": 142.420349,
    "region": "北海道",
    "url": "https://surfsnow.jp/guide/htm/r0640s.htm"
  },
  {
    "name": "岩見沢萩の山市民スキー場",
    "skiID": 38,
    "latitude": 43.16450195,
    "longitude": 141.8130007,
    "region": "北海道",
    "url": "https://surfsnow.jp/guide/htm/r0644s.htm"
  },
  {
    "name": "長沼スキー場",
    "skiID": 39,
    "latitude": 43.03945561,
    "longitude": 141.7441881,
    "region": "北海道",
    "url": "https://surfsnow.jp/guide/htm/r0647s.htm"
  },
  {
    "name": "三笠桂沢国設スキー場",
    "skiID": 40,
    "latitude": 43.25212075,
    "longitude": 141.9809918,
    "region": "北海道",
    "url": "https://surfsnow.jp/guide/htm/r0648s.htm"
  },
  {
    "name": "日高国際スキー場",
    "skiID": 41,
    "latitude": 42.87064637,
    "longitude": 142.4465782,
    "region": "北海道",
    "url": "https://surfsnow.jp/guide/htm/r0649s.htm"
  },
  {
    "name": "湧別町 五鹿山スキー場",
    "skiID": 42,
    "latitude": 44.18384509,
    "longitude": 143.6094969,
    "region": "北海道",
    "url": "https://surfsnow.jp/guide/htm/r0653s.htm"
  },
  {
    "name": "佐呂間町営スキー場",
    "skiID": 43,
    "latitude": 44.00888139,
    "longitude": 143.7549571,
    "region": "北海道",
    "url": "https://surfsnow.jp/guide/htm/r0654s.htm"
  },
  {
    "name": "北見市留辺蘂町 八方台スキー場",
    "skiID": 44,
    "latitude": 43.77010282,
    "longitude": 143.6130528,
    "region": "北海道",
    "url": "https://surfsnow.jp/guide/htm/r0655s.htm"
  },
  {
    "name": "北見若松市民スキー場",
    "skiID": 45,
    "latitude": 43.75536216,
    "longitude": 143.921156,
    "region": "北海道",
    "url": "https://surfsnow.jp/guide/htm/r0656s.htm"
  },
  {
    "name": "標津町営金山スキー場",
    "skiID": 46,
    "latitude": 43.743325,
    "longitude": 144.9273489,
    "region": "北海道",
    "url": "https://surfsnow.jp/guide/htm/r0659s.htm"
  },
  {
    "name": "国設阿寒湖畔スキー場【ウタラ】",
    "skiID": 47,
    "latitude": 43.42442561,
    "longitude": 144.0845704,
    "region": "北海道",
    "url": "https://surfsnow.jp/guide/htm/r0660s.htm"
  },
  {
    "name": "ダイナスティスキーリゾート",
    "skiID": 48,
    "latitude": 42.93163561,
    "longitude": 141.4516091,
    "region": "北海道",
    "url": "https://surfsnow.jp/guide/htm/r0662s.htm"
  },
  {
    "name": "Fu’s snow area",
    "skiID": 49,
    "latitude": 42.95433553,
    "longitude": 141.2793961,
    "region": "北海道",
    "url": "https://surfsnow.jp/guide/htm/r0663s.htm"
  },
  {
    "name": "仁木町民スキー場",
    "skiID": 50,
    "latitude": 43.11569322,
    "longitude": 140.7312106,
    "region": "北海道",
    "url": "https://surfsnow.jp/guide/htm/r0664s.htm"
  },
  {
    "name": "オロフレスキー場",
    "skiID": 51,
    "latitude": 42.55797801,
    "longitude": 140.9857896,
    "region": "北海道",
    "url": "https://surfsnow.jp/guide/htm/r0665s.htm"
  },
  {
    "name": "カルルス温泉サンライバスキー場",
    "skiID": 52,
    "latitude": 42.52181131,
    "longitude": 141.104753,
    "region": "北海道",
    "url": "https://surfsnow.jp/guide/htm/r0666s.htm"
  },
  {
    "name": "今金町ピリカスキー場",
    "skiID": 53,
    "latitude": 42.46397651,
    "longitude": 140.2031269,
    "region": "北海道",
    "url": "https://surfsnow.jp/guide/htm/r0668s.htm"
  },
  {
    "name": "幌延町東ヶ丘スキー場",
    "skiID": 54,
    "latitude": 45.01953785,
    "longitude": 141.8542025,
    "region": "北海道",
    "url": "https://surfsnow.jp/guide/htm/r0671s.htm"
  },
  {
    "name": "倶知安町旭ヶ丘スキー場",
    "skiID": 55,
    "latitude": 42.90180407,
    "longitude": 140.7386027,
    "region": "北海道",
    "url": "https://surfsnow.jp/guide/htm/r0673s.htm"
  },
  {
    "name": "滝野スノーワールド",
    "skiID": 56,
    "latitude": 42.91704923,
    "longitude": 141.3887651,
    "region": "北海道",
    "url": "https://surfsnow.jp/guide/htm/r0680s.htm"
  },
  {
    "name": "そっち岳スキー場",
    "skiID": 57,
    "latitude": 43.53820751,
    "longitude": 141.7990085,
    "region": "北海道",
    "url": "https://surfsnow.jp/guide/htm/r0682s.htm"
  },
  {
    "name": "羽幌町民スキー場 びゅー",
    "skiID": 58,
    "latitude": 44.31620527,
    "longitude": 141.7849037,
    "region": "北海道",
    "url": "https://surfsnow.jp/guide/htm/r0683s.htm"
  },
  {
    "name": "ウィンザースノービレッジ",
    "skiID": 59,
    "latitude": 42.59207751,
    "longitude": 140.7573147,
    "region": "北海道",
    "url": "https://surfsnow.jp/guide/htm/r0685s.htm"
  },
  {
    "name": "明野ヶ丘スキー場",
    "skiID": 60,
    "latitude": 42.89718029,
    "longitude": 143.3720125,
    "region": "北海道",
    "url": "https://surfsnow.jp/guide/htm/r0686s.htm"
  },
  {
    "name": "ニセコHANAZONOリゾート",
    "skiID": 61,
    "latitude": 42.89330586,
    "longitude": 140.7001874,
    "region": "北海道",
    "url": "https://surfsnow.jp/guide/htm/r0945s.htm"
  },
  {
    "name": "和寒町東山スキー場",
    "skiID": 62,
    "latitude": 44.03452015,
    "longitude": 142.4137071,
    "region": "北海道",
    "url": "https://surfsnow.jp/guide/htm/r0982s.htm"
  },
  {
    "name": "石狩平原スキー場",
    "skiID": 63,
    "latitude": 43.26100799,
    "longitude": 141.5070487,
    "region": "北海道",
    "url": "https://surfsnow.jp/guide/htm/r0984s.htm"
  },
  {
    "name": "メムロスキー場",
    "skiID": 64,
    "latitude": 42.83094307,
    "longitude": 142.9885365,
    "region": "北海道",
    "url": "https://surfsnow.jp/guide/htm/r0986s.htm"
  },
  {
    "name": "清里町営緑スキー場",
    "skiID": 65,
    "latitude": 43.72027126,
    "longitude": 144.502936,
    "region": "北海道",
    "url": "https://surfsnow.jp/guide/htm/r0989s.htm"
  },
  {
    "name": "ニセコモイワスキーリゾート",
    "skiID": 66,
    "latitude": 42.84830062,
    "longitude": 140.6302256,
    "region": "北海道",
    "url": "https://surfsnow.jp/guide/htm/r1009s.htm"
  },
  {
    "name": "安平山スキー場",
    "skiID": 67,
    "latitude": 42.86419052,
    "longitude": 141.7980755,
    "region": "北海道",
    "url": "https://surfsnow.jp/guide/htm/r0676s.htm"
  },
  {
    "name": "音威富士スキー場",
    "skiID": 68,
    "latitude": 44.72235147,
    "longitude": 142.2720737,
    "region": "北海道",
    "url": "https://surfsnow.jp/guide/htm/r0619s.htm"
  },
  {
    "name": "国設南ふらのスキー場",
    "skiID": 69,
    "latitude": 43.16000814,
    "longitude": 142.5588887,
    "region": "北海道",
    "url": "https://surfsnow.jp/guide/htm/r0650s.htm"
  },
  {
    "name": "豊富温泉スキー場",
    "skiID": 70,
    "latitude": 45.07419139,
    "longitude": 141.8419245,
    "region": "北海道",
    "url": "https://surfsnow.jp/guide/htm/r0616s.htm"
  },
  {
    "name": "天塩町町民スキー場",
    "skiID": 71,
    "latitude": 44.90374128,
    "longitude": 141.8302973,
    "region": "北海道",
    "url": "https://surfsnow.jp/guide/htm/r0981s.htm"
  },
  {
    "name": "美深スキー場",
    "skiID": 72,
    "latitude": 44.4884637,
    "longitude": 142.3595766,
    "region": "北海道",
    "url": "https://surfsnow.jp/guide/htm/r0620s.htm"
  },
  {
    "name": "大雪山旭岳ロープウェイ",
    "skiID": 73,
    "latitude": 43.65788315,
    "longitude": 142.8125323,
    "region": "北海道",
    "url": "https://surfsnow.jp/guide/htm/r0983s.htm"
  },
  {
    "name": "小平町望洋台スキー場",
    "skiID": 74,
    "latitude": 44.02503259,
    "longitude": 141.6745582,
    "region": "北海道",
    "url": "https://surfsnow.jp/guide/htm/r0637s.htm"
  },
  {
    "name": "上富良野町日の出スキー場",
    "skiID": 75,
    "latitude": 43.46354787,
    "longitude": 142.4815136,
    "region": "北海道",
    "url": "https://surfsnow.jp/guide/htm/r0639s.htm"
  },
  {
    "name": "伊ノ沢市民スキー場",
    "skiID": 76,
    "latitude": 43.74832513,
    "longitude": 142.3335511,
    "region": "北海道",
    "url": "https://surfsnow.jp/guide/htm/r0634s.htm"
  },
  {
    "name": "忠類白銀台スキー場",
    "skiID": 77,
    "latitude": 42.56374509,
    "longitude": 143.3099664,
    "region": "北海道",
    "url": "https://surfsnow.jp/guide/htm/r0975s.htm"
  },
  {
    "name": "置戸町南ヶ丘スキー場",
    "skiID": 78,
    "latitude": 43.67602143,
    "longitude": 143.6003181,
    "region": "北海道",
    "url": "https://surfsnow.jp/guide/htm/r0674s.htm"
  },
  {
    "name": "ぬかびら源泉郷スキー場",
    "skiID": 79,
    "latitude": 43.3640814,
    "longitude": 143.1869759,
    "region": "北海道",
    "url": "https://surfsnow.jp/guide/htm/r0606s.htm"
  },
  {
    "name": "美幌町リリー山スキー場",
    "skiID": 80,
    "latitude": 43.84208863,
    "longitude": 144.092272,
    "region": "北海道",
    "url": "https://surfsnow.jp/guide/htm/r0990s.htm"
  },
  {
    "name": "阿寒ロイヤルバレイスキー場",
    "skiID": 81,
    "latitude": 43.10578081,
    "longitude": 144.1337442,
    "region": "北海道",
    "url": "https://surfsnow.jp/guide/htm/r0988s.htm"
  },
  {
    "name": "新得山スキー場",
    "skiID": 82,
    "latitude": 43.09325845,
    "longitude": 142.8312506,
    "region": "北海道",
    "url": "https://surfsnow.jp/guide/htm/r0985s.htm"
  },
  {
    "name": "網走レークビュースキー場",
    "skiID": 83,
    "latitude": 43.98841601,
    "longitude": 144.2239861,
    "region": "北海道",
    "url": "https://surfsnow.jp/guide/htm/r0657s.htm"
  },
  {
    "name": "えんがるロックバレースキー場",
    "skiID": 84,
    "latitude": 44.02125601,
    "longitude": 143.4959417,
    "region": "北海道",
    "url": "https://surfsnow.jp/guide/htm/r0672s.htm"
  },
  {
    "name": "斜里町ウナベツスキー場",
    "skiID": 85,
    "latitude": 43.92598701,
    "longitude": 144.8087039,
    "region": "北海道",
    "url": "https://surfsnow.jp/guide/htm/r0987s.htm"
  },
  {
    "name": "興部町営スキー場",
    "skiID": 86,
    "latitude": 44.45931152,
    "longitude": 143.1133469,
    "region": "北海道",
    "url": "https://surfsnow.jp/guide/htm/r0622s.htm"
  },
  {
    "name": "滝上町桜ケ丘スキー場",
    "skiID": 87,
    "latitude": 44.19112989,
    "longitude": 143.1065864,
    "region": "北海道",
    "url": "https://surfsnow.jp/guide/htm/r0626s.htm"
  },
  {
    "name": "ニヤマ高原スキー場",
    "skiID": 88,
    "latitude": 41.93345065,
    "longitude": 140.6341614,
    "region": "北海道",
    "url": "https://surfsnow.jp/guide/htm/r0679s.htm"
  },
  {
    "name": "美唄国設スキー場",
    "skiID": 89,
    "latitude": 43.3217366,
    "longitude": 141.9486831,
    "region": "北海道",
    "url": "https://surfsnow.jp/guide/htm/r0642s.htm"
  },
  {
    "name": "恵庭市民スキー場",
    "skiID": 90,
    "latitude": 42.84662585,
    "longitude": 141.4893782,
    "region": "北海道",
    "url": "https://surfsnow.jp/guide/htm/r0661s.htm"
  },
  {
    "name": "オロフレスキー場",
    "skiID": 91,
    "latitude": 42.55690572,
    "longitude": 140.9855288,
    "region": "北海道",
    "url": "https://surfsnow.jp/guide/htm/r0665s.htm"
  },
  {
    "name": "知内町営スキー場",
    "skiID": 92,
    "latitude": 41.59380189,
    "longitude": 140.4062376,
    "region": "北海道",
    "url": "https://surfsnow.jp/guide/htm/r0675s.htm"
  },
  {
    "name": "室蘭市高原だんパラスキー場",
    "skiID": 93,
    "latitude": 42.41408796,
    "longitude": 141.0025886,
    "region": "北海道",
    "url": "https://surfsnow.jp/guide/htm/r0667s.htm"
  },
  {
    "name": "北海道グリーンランドホワイトパーク",
    "skiID": 94,
    "latitude": 43.16939631,
    "longitude": 141.7824038,
    "region": "北海道",
    "url": "https://surfsnow.jp/guide/htm/r0645s.htm"
  },
  {
    "name": "若杉高原おおやスキー場",
    "skiID": 95,
    "latitude": 35.28337206,
    "longitude": 134.5878656,
    "region": "兵庫県",
    "url": "https://surfsnow.jp/guide/htm/r0240s.htm"
  },
  {
    "name": "ハチ高原スキー場",
    "skiID": 96,
    "latitude": 35.38570017,
    "longitude": 134.5354677,
    "region": "兵庫県",
    "url": "https://hachikougen.net/"
  },
  {
    "name": "ハチ・ハチ北スキー場",
    "skiID": 97,
    "latitude": 35.40803774,
    "longitude": 134.5539311,
    "region": "兵庫県",
    "url": "https://surfsnow.jp/guide/htm/r0053s.htm"
  },
  {
    "name": "スカイバレイスキー場",
    "skiID": 98,
    "latitude": 35.3982475,
    "longitude": 134.573379,
    "region": "兵庫県",
    "url": "https://surfsnow.jp/guide/htm/r0222s.htm"
  },
  {
    "name": "おじろスキー場",
    "skiID": 99,
    "latitude": 35.46626944,
    "longitude": 134.5151822,
    "region": "兵庫県",
    "url": "https://surfsnow.jp/guide/htm/r0220s.htm"
  },
  {
    "name": "アップかんなべ",
    "skiID": 100,
    "latitude": 35.50130927,
    "longitude": 134.6781608,
    "region": "兵庫県",
    "url": "https://surfsnow.jp/guide/htm/r0225s.htm"
  },
  {
    "name": "ばんしゅう戸倉スキー場",
    "skiID": 101,
    "latitude": 35.28948567,
    "longitude": 134.542709,
    "region": "兵庫県",
    "url": "https://surfsnow.jp/guide/htm/r0245s.htm"
  },
  {
    "name": "ハイパーボウル東鉢",
    "skiID": 102,
    "latitude": 35.38612334,
    "longitude": 134.5665554,
    "region": "兵庫県",
    "url": "https://surfsnow.jp/guide/htm/r0897s.htm"
  },
  {
    "name": "氷ノ山国際スキー場",
    "skiID": 103,
    "latitude": 35.37011109,
    "longitude": 134.5392478,
    "region": "兵庫県",
    "url": "https://surfsnow.jp/guide/htm/r0898s.htm"
  },
  {
    "name": "但馬牧場公園スキー場",
    "skiID": 104,
    "latitude": 35.51599202,
    "longitude": 134.4891876,
    "region": "兵庫県",
    "url": "https://surfsnow.jp/guide/htm/r0899s.htm"
  },
  {
    "name": "六甲山スノーパーク",
    "skiID": 105,
    "latitude": 34.76814907,
    "longitude": 135.2426125,
    "region": "兵庫県",
    "url": "https://surfsnow.jp/guide/htm/r0900s.htm"
  },
  {
    "name": "ちくさ高原スキー場",
    "skiID": 106,
    "latitude": 35.22069115,
    "longitude": 134.3899018,
    "region": "兵庫県",
    "url": "https://surfsnow.jp/guide/htm/r0901s.htm"
  },
  {
    "name": "奥神鍋スキー場",
    "skiID": 107,
    "latitude": 35.50497709,
    "longitude": 134.6523648,
    "region": "兵庫県",
    "url": "https://surfsnow.jp/guide/htm/r0902s.htm"
  },
  {
    "name": "神鍋高原 万場スキー場",
    "skiID": 108,
    "latitude": 35.49450655,
    "longitude": 134.6636661,
    "region": "兵庫県",
    "url": "https://surfsnow.jp/guide/htm/r0974s.htm"
  },
  {
    "name": "峰山高原リゾート",
    "skiID": 109,
    "latitude": 35.13224183,
    "longitude": 134.6666859,
    "region": "兵庫県",
    "url": "https://surfsnow.jp/guide/htm/r1015s.htm"
  },
  {
    "name": "北日光・高畑スキー場（会津高原高畑スキー場）",
    "skiID": 110,
    "latitude": 37.10090983,
    "longitude": 139.4493393,
    "region": "福島県",
    "url": "https://surfsnow.jp/guide/htm/r0104s.htm"
  },
  {
    "name": "リステルスキーファンタジア",
    "skiID": 111,
    "latitude": 37.54319749,
    "longitude": 140.1497523,
    "region": "福島県",
    "url": "https://surfsnow.jp/guide/htm/r0005s.htm"
  },
  {
    "name": "Grandeco Snow Resort",
    "skiID": 112,
    "latitude": 37.69562902,
    "longitude": 140.1326804,
    "region": "福島県",
    "url": "https://surfsnow.jp/guide/htm/r1025s.htm"
  },
  {
    "name": "星野リゾート ネコマ マウンテン(旧猫魔スキー場＆アルツ磐梯）",
    "skiID": 113,
    "latitude": 37.62894645,
    "longitude": 140.0376162,
    "region": "福島県",
    "url": "https://surfsnow.jp/guide/htm/r0215s.htm"
  },
  {
    "name": "星野リゾート ネコマ マウンテン(旧アルツ磐梯＆猫魔スキー場）",
    "skiID": 114,
    "latitude": 37.58851398,
    "longitude": 140.0335656,
    "region": "福島県",
    "url": "https://surfsnow.jp/guide/htm/r0275s.htm"
  },
  {
    "name": "沼尻スキー場",
    "skiID": 115,
    "latitude": 37.62267195,
    "longitude": 140.227972,
    "region": "福島県",
    "url": "https://surfsnow.jp/guide/htm/r0153s.htm"
  },
  {
    "name": "あだたら高原スキー場",
    "skiID": 116,
    "latitude": 37.62275291,
    "longitude": 140.3243734,
    "region": "福島県",
    "url": "あだたら高原スキー場"
  },
  {
    "name": "会津高原だいくらスキー場",
    "skiID": 117,
    "latitude": 37.18158949,
    "longitude": 139.6372173,
    "region": "福島県",
    "url": "https://surfsnow.jp/guide/htm/r0332s.htm"
  },
  {
    "name": "会津高原南郷スキー場",
    "skiID": 118,
    "latitude": 37.27161958,
    "longitude": 139.5431982,
    "region": "福島県",
    "url": "https://surfsnow.jp/guide/htm/r0333s.htm"
  },
  {
    "name": "裏磐梯スキー場",
    "skiID": 119,
    "latitude": 37.63210641,
    "longitude": 140.068095,
    "region": "福島県",
    "url": "https://surfsnow.jp/guide/htm/r0336s.htm"
  },
  {
    "name": "猪苗代リゾートスキー場",
    "skiID": 120,
    "latitude": 37.57973245,
    "longitude": 140.0600745,
    "region": "福島県",
    "url": "https://www.syakunage.com/%E7%8C%AA%E8%8B%97%E4%BB%A3%E3%83%AA%E3%82%BE%E3%83%BC%E3%83%88%E3%82%B9%E3%82%AD%E3%83%BC%E5%A0%B4/"
  },
  {
    "name": "会津高原たかつえスキー場",
    "skiID": 121,
    "latitude": 37.1101707,
    "longitude": 139.6164182,
    "region": "福島県",
    "url": "https://surfsnow.jp/guide/htm/r0759s.htm"
  },
  {
    "name": "尾瀬檜枝岐温泉スキー場",
    "skiID": 122,
    "latitude": 37.04124161,
    "longitude": 139.396562,
    "region": "福島県",
    "url": "https://surfsnow.jp/guide/htm/r0762s.htm"
  },
  {
    "name": "絶景・猪苗代スキー場",
    "skiID": 123,
    "latitude": 37.57546712,
    "longitude": 140.0946421,
    "region": "福島県",
    "url": "https://surfsnow.jp/guide/htm/r0944s.htm"
  },
  {
    "name": "EN RESORT Grandeco Snow Resort",
    "skiID": 124,
    "latitude": 37.69574366,
    "longitude": 140.1326965,
    "region": "福島県",
    "url": "https://surfsnow.jp/guide/htm/r1025s.htm"
  },
  {
    "name": "二本松塩沢スキー場",
    "skiID": 125,
    "latitude": 37.64064924,
    "longitude": 140.3309845,
    "region": "福島県",
    "url": "https://surfsnow.jp/guide/htm/r0997s.htm"
  },
  {
    "name": "喜多方市三ノ倉スキー場",
    "skiID": 126,
    "latitude": 37.75032982,
    "longitude": 139.8672816,
    "region": "福島県",
    "url": "https://surfsnow.jp/guide/htm/r0766s.htm"
  },
  {
    "name": "只見スキー場",
    "skiID": 127,
    "latitude": 37.34643385,
    "longitude": 139.3101659,
    "region": "福島県",
    "url": "https://surfsnow.jp/guide/htm/r0765s.htm"
  },
  {
    "name": "フェアリーランドかねやまスキー場",
    "skiID": 128,
    "latitude": 37.44496371,
    "longitude": 139.5351197,
    "region": "福島県",
    "url": "https://surfsnow.jp/guide/htm/r0764s.htm"
  },
  {
    "name": "スキージャム勝山",
    "skiID": 129,
    "latitude": 36.07289283,
    "longitude": 136.5557228,
    "region": "福井県",
    "url": "https://surfsnow.jp/guide/htm/r0019s.htm"
  },
  {
    "name": "福井和泉スキー場",
    "skiID": 130,
    "latitude": 35.93985672,
    "longitude": 136.6922785,
    "region": "福井県",
    "url": "https://surfsnow.jp/guide/htm/r0133s.htm"
  },
  {
    "name": "今庄365スキー場",
    "skiID": 131,
    "latitude": 35.72350823,
    "longitude": 136.1483086,
    "region": "福井県",
    "url": "https://surfsnow.jp/guide/htm/r0232s.htm"
  },
  {
    "name": "新保ファミリースキー場",
    "skiID": 132,
    "latitude": 35.85595196,
    "longitude": 136.3077861,
    "region": "福井県",
    "url": "https://surfsnow.jp/guide/htm/r0834s.htm"
  },
  {
    "name": "九頭竜スキー場",
    "skiID": 133,
    "latitude": 35.89849385,
    "longitude": 136.6545485,
    "region": "福井県",
    "url": "https://surfsnow.jp/guide/htm/r0977s.htm"
  },
  {
    "name": "スキージャム勝山",
    "skiID": 134,
    "latitude": 36.0732679,
    "longitude": 136.5555716,
    "region": "福井県",
    "url": "https://surfsnow.jp/guide/htm/r0019s.htm"
  },
  {
    "name": "タカンボースキー場",
    "skiID": 135,
    "latitude": 36.37888654,
    "longitude": 136.8653503,
    "region": "富山県",
    "url": "https://surfsnow.jp/guide/htm/r0816s.htm"
  },
  {
    "name": "たいらスキー場",
    "skiID": 136,
    "latitude": 36.44016086,
    "longitude": 136.9246855,
    "region": "富山県",
    "url": "https://surfsnow.jp/guide/htm/r0817s.htm"
  },
  {
    "name": "牛岳温泉スキー場",
    "skiID": 137,
    "latitude": 36.57258828,
    "longitude": 137.0564609,
    "region": "富山県",
    "url": "https://surfsnow.jp/guide/htm/r0819s.htm"
  },
  {
    "name": "立山山麓スキー場",
    "skiID": 138,
    "latitude": 36.57672331,
    "longitude": 137.4279414,
    "region": "富山県",
    "url": "https://surfsnow.jp/guide/htm/r0821s.htm"
  },
  {
    "name": "となみ夢の平スキー場",
    "skiID": 139,
    "latitude": 36.58608423,
    "longitude": 137.0205659,
    "region": "富山県",
    "url": "https://surfsnow.jp/guide/htm/r0822s.htm"
  },
  {
    "name": "IOX‐AROSA",
    "skiID": 140,
    "latitude": 36.51518081,
    "longitude": 136.820073,
    "region": "富山県",
    "url": "https://surfsnow.jp/guide/htm/r0962s.htm"
  },
  {
    "name": "宇奈月温泉スキー場",
    "skiID": 141,
    "latitude": 36.8124107,
    "longitude": 137.5845769,
    "region": "富山県",
    "url": "https://surfsnow.jp/guide/htm/r0820s.htm"
  },
  {
    "name": "ハンターマウンテン塩原",
    "skiID": 142,
    "latitude": 36.93853941,
    "longitude": 139.7541676,
    "region": "栃木県",
    "url": "https://surfsnow.jp/guide/htm/r0067s.htm"
  },
  {
    "name": "エーデルワイススキーリゾート",
    "skiID": 143,
    "latitude": 36.92525753,
    "longitude": 139.7489423,
    "region": "栃木県",
    "url": "https://surfsnow.jp/guide/htm/r0161s.htm"
  },
  {
    "name": "日光湯元温泉スキー場",
    "skiID": 144,
    "latitude": 36.80367452,
    "longitude": 139.4194868,
    "region": "栃木県",
    "url": "https://surfsnow.jp/guide/htm/r0767s.htm"
  },
  {
    "name": "井川スキー場 腕山",
    "skiID": 145,
    "latitude": 33.96346261,
    "longitude": 133.8847239,
    "region": "徳島県",
    "url": "https://surfsnow.jp/guide/htm/r1013s.htm"
  },
  {
    "name": "琴引フォレストパーク",
    "skiID": 146,
    "latitude": 35.05511831,
    "longitude": 132.7686093,
    "region": "島根県",
    "url": "https://surfsnow.jp/guide/htm/r0015s.htm"
  },
  {
    "name": "瑞穂ハイランド",
    "skiID": 147,
    "latitude": 34.81610331,
    "longitude": 132.3999521,
    "region": "島根県",
    "url": "https://surfsnow.jp/guide/htm/r1024s.htm"
  },
  {
    "name": "ひろしま県民の森スキー場",
    "skiID": 148,
    "latitude": 35.09084723,
    "longitude": 133.0712269,
    "region": "島根県",
    "url": "https://hiroshima-kenmori.com/activity#ski"
  },
  {
    "name": "わかさ氷ノ山スキー場",
    "skiID": 149,
    "latitude": 35.35241732,
    "longitude": 134.4898017,
    "region": "島根県",
    "url": "https://surfsnow.jp/guide/htm/r0904s.htm"
  },
  {
    "name": "だいせんホワイトリゾート",
    "skiID": 150,
    "latitude": 35.39715716,
    "longitude": 133.534095,
    "region": "鳥取県",
    "url": "https://surfsnow.jp/guide/htm/r0247s.htm"
  },
  {
    "name": "大山ますみず高原スキー場 〜SNOW PARK〜",
    "skiID": 151,
    "latitude": 35.38019834,
    "longitude": 133.5176686,
    "region": "鳥取県",
    "url": "https://surfsnow.jp/guide/htm/r0906s.htm"
  },
  {
    "name": "大山鏡ヶ成スキー場",
    "skiID": 152,
    "latitude": 35.3444319,
    "longitude": 133.5914115,
    "region": "鳥取県",
    "url": "https://surfsnow.jp/guide/htm/r0907s.htm"
  },
  {
    "name": "タングラムスキーサーカス",
    "skiID": 153,
    "latitude": 36.85356568,
    "longitude": 138.2630248,
    "region": "長野県",
    "url": "https://surfsnow.jp/guide/htm/r0016s.htm"
  },
  {
    "name": "斑尾高原スキー場",
    "skiID": 154,
    "latitude": 36.85295291,
    "longitude": 138.2904415,
    "region": "長野県",
    "url": "https://surfsnow.jp/guide/htm/r0202s.htm"
  },
  {
    "name": "野沢温泉スキー場",
    "skiID": 155,
    "latitude": 36.92108801,
    "longitude": 138.452499,
    "region": "長野県",
    "url": "https://surfsnow.jp/guide/htm/r0028s.htm"
  },
  {
    "name": "戸隠スキー場",
    "skiID": 156,
    "latitude": 36.75458879,
    "longitude": 138.0947437,
    "region": "長野県",
    "url": "https://surfsnow.jp/guide/htm/r0034s.htm"
  },
  {
    "name": "黒姫高原スノーパーク",
    "skiID": 157,
    "latitude": 36.82659363,
    "longitude": 138.1620383,
    "region": "長野県",
    "url": "https://surfsnow.jp/guide/htm/r0051s.htm"
  },
  {
    "name": "戸狩温泉スキー場",
    "skiID": 158,
    "latitude": 36.93234131,
    "longitude": 138.3879056,
    "region": "長野県",
    "url": "https://surfsnow.jp/guide/htm/r0171s.htm"
  },
  {
    "name": "いいづなリゾートスキー場",
    "skiID": 159,
    "latitude": 36.73774805,
    "longitude": 138.1708231,
    "region": "長野県",
    "url": "https://surfsnow.jp/guide/htm/r0006s.htm"
  },
  {
    "name": "白樺湖ロイヤルヒル",
    "skiID": 160,
    "latitude": 36.1022345,
    "longitude": 138.2343376,
    "region": "長野県",
    "url": "https://surfsnow.jp/guide/htm/r0017s.htm"
  },
  {
    "name": "車山高原SKYPARKスキー場",
    "skiID": 161,
    "latitude": 36.10223517,
    "longitude": 138.208378,
    "region": "長野県",
    "url": "https://surfsnow.jp/guide/htm/r0066s.htm"
  },
  {
    "name": "蓼科東急スキー場",
    "skiID": 162,
    "latitude": 36.06994611,
    "longitude": 138.2568593,
    "region": "長野県",
    "url": "https://surfsnow.jp/guide/htm/r0187s.htm"
  },
  {
    "name": "シャトレーゼスキーバレー小海",
    "skiID": 163,
    "latitude": 36.05461297,
    "longitude": 138.4118449,
    "region": "長野県",
    "url": "https://surfsnow.jp/guide/htm/r0068s.htm"
  },
  {
    "name": "ブランシュたかやまスキーリゾート",
    "skiID": 164,
    "latitude": 36.14814738,
    "longitude": 138.2053466,
    "region": "長野県",
    "url": "https://surfsnow.jp/guide/htm/r0077s.htm"
  },
  {
    "name": "富士見パノラマリゾート",
    "skiID": 165,
    "latitude": 35.91086669,
    "longitude": 138.2070455,
    "region": "長野県",
    "url": "https://surfsnow.jp/guide/htm/r0297s.htm"
  },
  {
    "name": "菅平高原スノーリゾート",
    "skiID": 166,
    "latitude": 36.53187262,
    "longitude": 138.3300946,
    "region": "長野県",
    "url": "https://surfsnow.jp/guide/htm/r0108s.htm"
  },
  {
    "name": "湯の丸スキー場",
    "skiID": 167,
    "latitude": 36.42836834,
    "longitude": 138.4204042,
    "region": "長野県",
    "url": "https://surfsnow.jp/guide/htm/r0111s.htm"
  },
  {
    "name": "佐久スキーガーデン「パラダ」北パラダスキー場",
    "skiID": 168,
    "latitude": 36.29436576,
    "longitude": 138.510235,
    "region": "長野県",
    "url": "https://surfsnow.jp/guide/htm/r0105s.htm"
  },
  {
    "name": "軽井沢プリンスホテルスキー場",
    "skiID": 169,
    "latitude": 36.34058879,
    "longitude": 138.6437181,
    "region": "長野県",
    "url": "https://surfsnow.jp/guide/htm/r0129s.htm"
  },
  {
    "name": "志賀高原 焼額山スキー場",
    "skiID": 170,
    "latitude": 36.75269234,
    "longitude": 138.5170474,
    "region": "長野県",
    "url": "https://surfsnow.jp/guide/htm/r0130s.htm"
  },
  {
    "name": "Mt.KOSHA よませ温泉スキー場 & X-JAM 高井富士",
    "skiID": 171,
    "latitude": 36.79994259,
    "longitude": 138.4271592,
    "region": "長野県",
    "url": "https://surfsnow.jp/guide/htm/r0023s.htm"
  },
  {
    "name": "スノーリゾート ロマンスの神様（旧 木島平スキー場）",
    "skiID": 172,
    "latitude": 36.81993659,
    "longitude": 138.4033372,
    "region": "長野県",
    "url": "https://surfsnow.jp/guide/htm/r0027s.htm"
  },
  {
    "name": "奥志賀高原スキー場",
    "skiID": 173,
    "latitude": 36.7661151,
    "longitude": 138.5146403,
    "region": "長野県",
    "url": "https://surfsnow.jp/guide/htm/r0160s.htm"
  },
  {
    "name": "竜王スキーパーク",
    "skiID": 174,
    "latitude": 36.78464296,
    "longitude": 138.4562089,
    "region": "長野県",
    "url": "https://surfsnow.jp/guide/htm/r0112s.htm"
  },
  {
    "name": "志賀高原リゾート中央エリア（サンバレー～一の瀬）",
    "skiID": 175,
    "latitude": 36.72132881,
    "longitude": 138.4964739,
    "region": "長野県",
    "url": "https://surfsnow.jp/guide/htm/r0280s.htm"
  },
  {
    "name": "志賀高原 熊の湯スキー場",
    "skiID": 176,
    "latitude": 36.68367419,
    "longitude": 138.4960177,
    "region": "長野県",
    "url": "https://surfsnow.jp/guide/htm/r0294s.htm"
  },
  {
    "name": "白馬乗鞍温泉スキー場",
    "skiID": 177,
    "latitude": 36.76607658,
    "longitude": 137.8739109,
    "region": "長野県",
    "url": "https://surfsnow.jp/guide/htm/r0010s.htm"
  },
  {
    "name": "エイブル白馬五竜",
    "skiID": 178,
    "latitude": 36.66334122,
    "longitude": 137.8366632,
    "region": "長野県",
    "url": "https://surfsnow.jp/guide/htm/r0041s.htm"
  },
  {
    "name": "Hakuba47 ウインタースポーツパーク",
    "skiID": 179,
    "latitude": 36.68520219,
    "longitude": 137.828446,
    "region": "長野県",
    "url": "https://surfsnow.jp/guide/htm/r0061s.htm"
  },
  {
    "name": "白馬八方尾根スキー場",
    "skiID": 180,
    "latitude": 36.69989256,
    "longitude": 137.8371407,
    "region": "長野県",
    "url": "https://surfsnow.jp/guide/htm/r0142s.htm"
  },
  {
    "name": "白馬岩岳スノーフィールド",
    "skiID": 181,
    "latitude": 36.71606641,
    "longitude": 137.8561892,
    "region": "長野県",
    "url": "https://surfsnow.jp/guide/htm/r0143s.htm"
  },
  {
    "name": "つがいけマウンテンリゾート",
    "skiID": 182,
    "latitude": 36.74914691,
    "longitude": 137.8715985,
    "region": "長野県",
    "url": "https://surfsnow.jp/guide/htm/r0144s.htm"
  },
  {
    "name": "HAKUBAVALLEY 鹿島槍スキー場 ファミリーパーク",
    "skiID": 183,
    "latitude": 36.59707661,
    "longitude": 137.8255044,
    "region": "長野県",
    "url": "https://surfsnow.jp/guide/htm/r0196s.htm"
  },
  {
    "name": "信州松本 野麦峠スキー場",
    "skiID": 184,
    "latitude": 36.0486313,
    "longitude": 137.7091783,
    "region": "長野県",
    "url": "https://surfsnow.jp/guide/htm/r0229s.htm"
  },
  {
    "name": "御嶽スキー場（旧 Ontake2240）",
    "skiID": 185,
    "latitude": 35.86318602,
    "longitude": 137.52862,
    "region": "長野県",
    "url": "https://surfsnow.jp/guide/htm/r0262s.htm"
  },
  {
    "name": "ヘブンスそのはら SNOW WORLD",
    "skiID": 186,
    "latitude": 35.45541118,
    "longitude": 137.6687536,
    "region": "長野県",
    "url": "https://surfsnow.jp/guide/htm/r0273s.htm"
  },
  {
    "name": "治部坂高原スキー場",
    "skiID": 187,
    "latitude": 35.35465903,
    "longitude": 137.6716679,
    "region": "長野県",
    "url": "https://surfsnow.jp/guide/htm/r0253s.htm"
  },
  {
    "name": "White Resort 白馬さのさか",
    "skiID": 188,
    "latitude": 36.63020095,
    "longitude": 137.8446047,
    "region": "長野県",
    "url": "https://surfsnow.jp/guide/htm/r0326s.htm"
  },
  {
    "name": "中央道 伊那スキーリゾート",
    "skiID": 189,
    "latitude": 35.81561965,
    "longitude": 137.9171853,
    "region": "長野県",
    "url": "https://surfsnow.jp/guide/htm/r0334s.htm"
  },
  {
    "name": "北志賀 よませ温泉スキー場",
    "skiID": 190,
    "latitude": 36.78565293,
    "longitude": 138.4150438,
    "region": "長野県",
    "url": "https://surfsnow.jp/guide/htm/r0023s.htm"
  },
  {
    "name": "八千穂高原スキー場",
    "skiID": 191,
    "latitude": 36.07005342,
    "longitude": 138.380845,
    "region": "長野県",
    "url": "https://surfsnow.jp/guide/htm/r0840s.htm"
  },
  {
    "name": "しらかば2in1スキー場",
    "skiID": 192,
    "latitude": 36.09518914,
    "longitude": 138.2634491,
    "region": "長野県",
    "url": "https://surfsnow.jp/guide/htm/r0842s.htm"
  },
  {
    "name": "白樺高原国際スキー場",
    "skiID": 193,
    "latitude": 36.13063434,
    "longitude": 138.2777131,
    "region": "長野県",
    "url": "https://surfsnow.jp/guide/htm/r0843s.htm"
  },
  {
    "name": "ピラタス蓼科スノーリゾート",
    "skiID": 194,
    "latitude": 36.06817933,
    "longitude": 138.301435,
    "region": "長野県",
    "url": "https://surfsnow.jp/guide/htm/r0844s.htm"
  },
  {
    "name": "Mt．乗鞍スノーリゾート",
    "skiID": 195,
    "latitude": 36.14655172,
    "longitude": 137.6177701,
    "region": "長野県",
    "url": "https://surfsnow.jp/guide/htm/r0845s.htm"
  },
  {
    "name": "やぶはら高原スキー場",
    "skiID": 196,
    "latitude": 35.96570077,
    "longitude": 137.7394873,
    "region": "長野県",
    "url": "https://surfsnow.jp/guide/htm/r0847s.htm"
  },
  {
    "name": "木曽福島スキー場",
    "skiID": 197,
    "latitude": 35.94566629,
    "longitude": 137.6673965,
    "region": "長野県",
    "url": "https://surfsnow.jp/guide/htm/r0848s.htm"
  },
  {
    "name": "開田高原マイアスキー場",
    "skiID": 198,
    "latitude": 35.93048656,
    "longitude": 137.5300786,
    "region": "長野県",
    "url": "https://surfsnow.jp/guide/htm/r0849s.htm"
  },
  {
    "name": "聖高原スキー場",
    "skiID": 199,
    "latitude": 36.48715204,
    "longitude": 138.0728285,
    "region": "長野県",
    "url": "https://surfsnow.jp/guide/htm/r0854s.htm"
  },
  {
    "name": "武石番所ヶ原スキー場",
    "skiID": 200,
    "latitude": 36.2604232,
    "longitude": 138.1124556,
    "region": "長野県",
    "url": "https://surfsnow.jp/guide/htm/r0855s.htm"
  },
  {
    "name": "さかえ倶楽部スキー場",
    "skiID": 201,
    "latitude": 36.99628106,
    "longitude": 138.5651194,
    "region": "長野県",
    "url": "https://surfsnow.jp/guide/htm/r0856s.htm"
  },
  {
    "name": "爺ガ岳スキー場",
    "skiID": 202,
    "latitude": 36.56162451,
    "longitude": 137.7983707,
    "region": "長野県",
    "url": "https://surfsnow.jp/guide/htm/r0857s.htm"
  },
  {
    "name": "池の平スノーパーク",
    "skiID": 203,
    "latitude": 36.1093773,
    "longitude": 138.2446286,
    "region": "長野県",
    "url": "https://surfsnow.jp/guide/htm/r0859s.htm"
  },
  {
    "name": "ファミリーゲレンデ 霧ヶ峰スキー場",
    "skiID": 204,
    "latitude": 36.09709166,
    "longitude": 138.1617072,
    "region": "長野県",
    "url": "https://surfsnow.jp/guide/htm/r0860s.htm"
  },
  {
    "name": "富士見高原スキー場",
    "skiID": 205,
    "latitude": 35.92290461,
    "longitude": 138.308286,
    "region": "長野県",
    "url": "https://surfsnow.jp/guide/htm/r0861s.htm"
  },
  {
    "name": "ひらや高原スキー場",
    "skiID": 206,
    "latitude": 35.30624769,
    "longitude": 137.6243125,
    "region": "長野県",
    "url": "https://surfsnow.jp/guide/htm/r0863s.htm"
  },
  {
    "name": "あさひプライムスキー場",
    "skiID": 207,
    "latitude": 36.11595124,
    "longitude": 137.8345699,
    "region": "長野県",
    "url": "https://surfsnow.jp/guide/htm/r0864s.htm"
  },
  {
    "name": "REWILD NINJA SNOW HIGHLAND",
    "skiID": 208,
    "latitude": 36.55698233,
    "longitude": 138.3510041,
    "region": "長野県",
    "url": "https://surfsnow.jp/guide/htm/r0865s.htm"
  },
  {
    "name": "駒ヶ根高原スキー場",
    "skiID": 209,
    "latitude": 35.80158905,
    "longitude": 137.8964206,
    "region": "長野県",
    "url": "https://surfsnow.jp/guide/htm/r0866s.htm"
  },
  {
    "name": "YAMABOKU ワイルドスノーパーク",
    "skiID": 210,
    "latitude": 36.66781022,
    "longitude": 138.4607391,
    "region": "長野県",
    "url": "https://surfsnow.jp/guide/htm/r0949s.htm"
  },
  {
    "name": "菅平パインビークスキー場",
    "skiID": 211,
    "latitude": 36.51780327,
    "longitude": 138.3180018,
    "region": "長野県",
    "url": "https://surfsnow.jp/guide/htm/r0979s.htm"
  },
  {
    "name": "佐久スキーガーデン「パラダ」南パラダスキー場",
    "skiID": 212,
    "latitude": 36.2788094,
    "longitude": 138.5130184,
    "region": "長野県",
    "url": "https://surfsnow.jp/guide/htm/r1021s.htm"
  },
  {
    "name": "横手山・渋峠スキー場",
    "skiID": 213,
    "latitude": 36.67747801,
    "longitude": 138.5104453,
    "region": "長野県",
    "url": "https://surfsnow.jp/guide/htm/r1022s.htm"
  },
  {
    "name": "池の平スノーパーク",
    "skiID": 214,
    "latitude": 36.10941776,
    "longitude": 138.244698,
    "region": "長野県",
    "url": "https://surfsnow.jp/guide/htm/r0859s.htm"
  },
  {
    "name": "ファミリーゲレンデ 霧ヶ峰スキー場",
    "skiID": 215,
    "latitude": 36.09704832,
    "longitude": 138.1615462,
    "region": "長野県",
    "url": "https://surfsnow.jp/guide/htm/r0860s.htm"
  },
  {
    "name": "白馬コルチナスキー場",
    "skiID": 216,
    "latitude": 36.77721849,
    "longitude": 137.8859875,
    "region": "長野県",
    "url": "https://surfsnow.jp/guide/htm/r0033s.htm"
  },
  {
    "name": "戸隠スキー場",
    "skiID": 217,
    "latitude": 36.75453722,
    "longitude": 138.0950333,
    "region": "長野県",
    "url": "https://surfsnow.jp/guide/htm/r0034s.htm"
  },
  {
    "name": "白山千丈温泉セイモアスキー場",
    "skiID": 218,
    "latitude": 36.34723643,
    "longitude": 136.6777556,
    "region": "石川県",
    "url": "https://surfsnow.jp/guide/htm/r0267s.htm"
  },
  {
    "name": "白山一里野温泉スキー場",
    "skiID": 219,
    "latitude": 36.26851278,
    "longitude": 136.7150142,
    "region": "石川県",
    "url": "https://surfsnow.jp/guide/htm/r0328s.htm"
  },
  {
    "name": "金沢市営医王山スキー場",
    "skiID": 220,
    "latitude": 36.52731208,
    "longitude": 136.7535884,
    "region": "石川県",
    "url": "https://surfsnow.jp/guide/htm/r0830s.htm"
  },
  {
    "name": "七尾コロサスキー場",
    "skiID": 221,
    "latitude": 36.9753908,
    "longitude": 136.9596997,
    "region": "石川県",
    "url": "https://surfsnow.jp/guide/htm/r0831s.htm"
  },
  {
    "name": "大倉岳高原スキー場",
    "skiID": 222,
    "latitude": 36.28386605,
    "longitude": 136.5379847,
    "region": "石川県",
    "url": "https://surfsnow.jp/guide/htm/r0828s.htm"
  },
  {
    "name": "スノーパーク イエティ",
    "skiID": 223,
    "latitude": 35.3002005,
    "longitude": 138.7684123,
    "region": "静岡県",
    "url": "https://surfsnow.jp/guide/htm/r0209s.htm"
  },
  {
    "name": "リバウェル井川スキー場",
    "skiID": 224,
    "latitude": 35.21594975,
    "longitude": 138.2789064,
    "region": "静岡県",
    "url": "https://surfsnow.jp/guide/htm/r0883s.htm"
  },
  {
    "name": "青森スプリング・スキーリゾート",
    "skiID": 225,
    "latitude": 40.69333953,
    "longitude": 140.2795253,
    "region": "青森県",
    "url": "https://surfsnow.jp/guide/htm/r0121s.htm"
  },
  {
    "name": "七戸町営スキー場",
    "skiID": 226,
    "latitude": 40.69818982,
    "longitude": 141.0990377,
    "region": "青森県",
    "url": "https://surfsnow.jp/guide/htm/r0691s.htm"
  },
  {
    "name": "奥入瀬渓流温泉スキー場",
    "skiID": 227,
    "latitude": 40.57949909,
    "longitude": 140.9933248,
    "region": "青森県",
    "url": "https://surfsnow.jp/guide/htm/r0693s.htm"
  },
  {
    "name": "八甲田スキー場",
    "skiID": 228,
    "latitude": 40.67956858,
    "longitude": 140.8326461,
    "region": "青森県",
    "url": "https://surfsnow.jp/guide/htm/r0694s.htm"
  },
  {
    "name": "創遊村229スキーランド",
    "skiID": 229,
    "latitude": 40.36502485,
    "longitude": 141.0717779,
    "region": "青森県",
    "url": "https://surfsnow.jp/guide/htm/r0695s.htm"
  },
  {
    "name": "大鰐温泉スキー場",
    "skiID": 230,
    "latitude": 40.50779285,
    "longitude": 140.5646052,
    "region": "青森県",
    "url": "https://surfsnow.jp/guide/htm/r0943s.htm"
  },
  {
    "name": "岩木山百沢スキー場",
    "skiID": 231,
    "latitude": 40.62872241,
    "longitude": 140.3307435,
    "region": "青森県",
    "url": "https://surfsnow.jp/guide/htm/r0692s.htm"
  },
  {
    "name": "そうまロマントピアスキー場",
    "skiID": 232,
    "latitude": 40.57582061,
    "longitude": 140.3900502,
    "region": "青森県",
    "url": "https://surfsnow.jp/guide/htm/r0696s.htm"
  },
  {
    "name": "むつ市釜臥山スキー場",
    "skiID": 233,
    "latitude": 41.26288513,
    "longitude": 141.138328,
    "region": "青森県",
    "url": "https://surfsnow.jp/guide/htm/r0687s.htm"
  },
  {
    "name": "モヤヒルズ",
    "skiID": 234,
    "latitude": 40.73682017,
    "longitude": 140.794087,
    "region": "青森県",
    "url": "https://surfsnow.jp/guide/htm/r0690s.htm"
  },
  {
    "name": "夜越山スキー場",
    "skiID": 235,
    "latitude": 40.92184819,
    "longitude": 140.9878136,
    "region": "青森県",
    "url": "https://surfsnow.jp/guide/htm/r0688s.htm"
  },
  {
    "name": "GALA湯沢スキー場",
    "skiID": 236,
    "latitude": 36.95098339,
    "longitude": 138.7995694,
    "region": "新潟県",
    "url": "https://surfsnow.jp/guide/htm/r0001s.htm"
  },
  {
    "name": "湯沢パークスキー場",
    "skiID": 237,
    "latitude": 36.92512019,
    "longitude": 138.8597917,
    "region": "新潟県",
    "url": "https://surfsnow.jp/guide/htm/r0154s.htm"
  },
  {
    "name": "湯沢中里スノーリゾート",
    "skiID": 238,
    "latitude": 36.91488302,
    "longitude": 138.8492506,
    "region": "新潟県",
    "url": "https://surfsnow.jp/guide/htm/r0046s.htm"
  },
  {
    "name": "神立スノーリゾート",
    "skiID": 239,
    "latitude": 36.91123304,
    "longitude": 138.8128487,
    "region": "新潟県",
    "url": "https://surfsnow.jp/guide/htm/r0083s.htm"
  },
  {
    "name": "上越国際スキー場",
    "skiID": 240,
    "latitude": 37.03481548,
    "longitude": 138.818892,
    "region": "新潟県",
    "url": "https://surfsnow.jp/guide/htm/r0037s.htm"
  },
  {
    "name": "舞子スノーリゾート",
    "skiID": 241,
    "latitude": 36.98298228,
    "longitude": 138.8250499,
    "region": "新潟県",
    "url": "https://surfsnow.jp/guide/htm/r0020s.htm"
  },
  {
    "name": "ムイカスノーリゾート",
    "skiID": 242,
    "latitude": 37.07169947,
    "longitude": 138.8459874,
    "region": "新潟県",
    "url": "https://surfsnow.jp/guide/htm/r0039s.htm"
  },
  {
    "name": "六日町八海山スキー場",
    "skiID": 243,
    "latitude": 37.10813792,
    "longitude": 138.977782,
    "region": "新潟県",
    "url": "https://surfsnow.jp/guide/htm/r0044s.htm"
  },
  {
    "name": "かぐらスキー場",
    "skiID": 244,
    "latitude": 36.86322333,
    "longitude": 138.7290062,
    "region": "新潟県",
    "url": "https://surfsnow.jp/guide/htm/r0070s.htm"
  },
  {
    "name": "苗場スキー場",
    "skiID": 245,
    "latitude": 36.7923299,
    "longitude": 138.7794534,
    "region": "新潟県",
    "url": "https://surfsnow.jp/guide/htm/r0047s.htm"
  },
  {
    "name": "ニュー・グリーンピア津南スキー場",
    "skiID": 246,
    "latitude": 36.96018079,
    "longitude": 138.6869632,
    "region": "新潟県",
    "url": "https://surfsnow.jp/guide/htm/r0084s.htm"
  },
  {
    "name": "NASPAスキーガーデン",
    "skiID": 247,
    "latitude": 36.92696934,
    "longitude": 138.8089781,
    "region": "新潟県",
    "url": "https://surfsnow.jp/guide/htm/r0156s.htm"
  },
  {
    "name": "岩原スキー場",
    "skiID": 248,
    "latitude": 36.93838195,
    "longitude": 138.8405439,
    "region": "新潟県",
    "url": "https://surfsnow.jp/guide/htm/r0298s.htm"
  },
  {
    "name": "湯沢高原スキー場",
    "skiID": 249,
    "latitude": 36.93982597,
    "longitude": 138.8031294,
    "region": "新潟県",
    "url": "https://surfsnow.jp/guide/htm/r0301s.htm"
  },
  {
    "name": "シャトー塩沢",
    "skiID": 250,
    "latitude": 37.04975398,
    "longitude": 138.8288578,
    "region": "新潟県",
    "url": "https://surfsnow.jp/guide/htm/r0158s.htm"
  },
  {
    "name": "妙高杉ノ原スキー場",
    "skiID": 251,
    "latitude": 36.85709848,
    "longitude": 138.1549788,
    "region": "新潟県",
    "url": "https://surfsnow.jp/guide/htm/r0132s.htm"
  },
  {
    "name": "キューピットバレイ",
    "skiID": 252,
    "latitude": 37.05518908,
    "longitude": 138.4844682,
    "region": "新潟県",
    "url": "https://surfsnow.jp/guide/htm/r0150s.htm"
  },
  {
    "name": "池の平温泉アルペンブリックスキー場",
    "skiID": 253,
    "latitude": 36.87272265,
    "longitude": 138.1720526,
    "region": "新潟県",
    "url": "https://surfsnow.jp/guide/htm/r0168s.htm"
  },
  {
    "name": "赤倉観光リゾートスキー場",
    "skiID": 254,
    "latitude": 36.88756119,
    "longitude": 138.1778378,
    "region": "新潟県",
    "url": "https://surfsnow.jp/guide/htm/r0276s.htm"
  },
  {
    "name": "シャルマン火打スキー場",
    "skiID": 255,
    "latitude": 37.00355568,
    "longitude": 138.0706387,
    "region": "新潟県",
    "url": "https://surfsnow.jp/guide/htm/r0782s.htm"
  },
  {
    "name": "胎内スキー場",
    "skiID": 256,
    "latitude": 38.01690963,
    "longitude": 139.502265,
    "region": "新潟県",
    "url": "https://surfsnow.jp/guide/htm/r0784s.htm"
  },
  {
    "name": "石打丸山スキー場",
    "skiID": 257,
    "latitude": 36.97999,
    "longitude": 138.8024923,
    "region": "新潟県",
    "url": "https://surfsnow.jp/guide/htm/r0788s.htm"
  },
  {
    "name": "奥只見丸山スキー場",
    "skiID": 258,
    "latitude": 37.18392091,
    "longitude": 139.2401644,
    "region": "新潟県",
    "url": "https://surfsnow.jp/guide/htm/r0789s.htm"
  },
  {
    "name": "一本杉スノーパーク",
    "skiID": 259,
    "latitude": 36.9366801,
    "longitude": 138.8066335,
    "region": "新潟県",
    "url": "https://surfsnow.jp/guide/htm/r0791s.htm"
  },
  {
    "name": "松之山温泉スキー場",
    "skiID": 260,
    "latitude": 37.05239948,
    "longitude": 138.5975357,
    "region": "新潟県",
    "url": "https://surfsnow.jp/guide/htm/r0795s.htm"
  },
  {
    "name": "小出スキー場",
    "skiID": 261,
    "latitude": 37.22830233,
    "longitude": 138.9553515,
    "region": "新潟県",
    "url": "https://surfsnow.jp/guide/htm/r0796s.htm"
  },
  {
    "name": "須原スキー場",
    "skiID": 262,
    "latitude": 37.3231657,
    "longitude": 139.0160997,
    "region": "新潟県",
    "url": "https://surfsnow.jp/guide/htm/r0799s.htm"
  },
  {
    "name": "三川・温泉スキー場",
    "skiID": 263,
    "latitude": 37.72086056,
    "longitude": 139.3933458,
    "region": "新潟県",
    "url": "https://surfsnow.jp/guide/htm/r0802s.htm"
  },
  {
    "name": "村上市 ぶどうスキー場",
    "skiID": 264,
    "latitude": 38.39009557,
    "longitude": 139.5544494,
    "region": "新潟県",
    "url": "https://surfsnow.jp/guide/htm/r0804s.htm"
  },
  {
    "name": "高柳ガルルのスキー場",
    "skiID": 265,
    "latitude": 37.22275228,
    "longitude": 138.6372532,
    "region": "新潟県",
    "url": "https://surfsnow.jp/guide/htm/r0805s.htm"
  },
  {
    "name": "古志高原スキー場",
    "skiID": 266,
    "latitude": 37.31851316,
    "longitude": 138.8873555,
    "region": "新潟県",
    "url": "https://surfsnow.jp/guide/htm/r0806s.htm"
  },
  {
    "name": "金谷山スキー場",
    "skiID": 267,
    "latitude": 37.10422406,
    "longitude": 138.2249257,
    "region": "新潟県",
    "url": "https://surfsnow.jp/guide/htm/r0808s.htm"
  },
  {
    "name": "休暇村妙高 ルンルンスキー場",
    "skiID": 268,
    "latitude": 36.91210988,
    "longitude": 138.1681717,
    "region": "新潟県",
    "url": "https://surfsnow.jp/guide/htm/r0809s.htm"
  },
  {
    "name": "松代ファミリースキー場",
    "skiID": 269,
    "latitude": 37.12685029,
    "longitude": 138.6055907,
    "region": "新潟県",
    "url": "https://surfsnow.jp/guide/htm/r0810s.htm"
  },
  {
    "name": "糸魚川シーサイドバレースキー場",
    "skiID": 270,
    "latitude": 36.94121956,
    "longitude": 137.899265,
    "region": "新潟県",
    "url": "https://surfsnow.jp/guide/htm/r0811s.htm"
  },
  {
    "name": "とちおファミリースキー場",
    "skiID": 271,
    "latitude": 37.43723545,
    "longitude": 139.039256,
    "region": "新潟県",
    "url": "https://surfsnow.jp/guide/htm/r0812s.htm"
  },
  {
    "name": "赤倉温泉スキー場",
    "skiID": 272,
    "latitude": 36.89106414,
    "longitude": 138.1766933,
    "region": "新潟県",
    "url": "https://surfsnow.jp/guide/htm/r0814s.htm"
  },
  {
    "name": "八海山麓スキー場",
    "skiID": 273,
    "latitude": 37.15477655,
    "longitude": 138.9739022,
    "region": "新潟県",
    "url": "https://surfsnow.jp/guide/htm/r0964s.htm"
  },
  {
    "name": "ニノックススノーパーク",
    "skiID": 274,
    "latitude": 37.92697269,
    "longitude": 139.4678962,
    "region": "新潟県",
    "url": "https://surfsnow.jp/guide/htm/r0970s.htm"
  },
  {
    "name": "アライマウンテンリゾート（旧ロッテアライリゾート）",
    "skiID": 275,
    "latitude": 36.98966025,
    "longitude": 138.180083,
    "region": "新潟県",
    "url": "https://surfsnow.jp/guide/htm/r1020s.htm"
  },
  {
    "name": "須原スキー場",
    "skiID": 276,
    "latitude": 37.32313157,
    "longitude": 139.0161856,
    "region": "新潟県",
    "url": "https://surfsnow.jp/guide/htm/r0799s.htm"
  },
  {
    "name": "薬師スキー場",
    "skiID": 277,
    "latitude": 37.23505335,
    "longitude": 138.9913255,
    "region": "新潟県",
    "url": "https://surfsnow.jp/guide/htm/r0797s.htm"
  },
  {
    "name": "長岡市営スキー場",
    "skiID": 278,
    "latitude": 37.41548863,
    "longitude": 138.8911961,
    "region": "新潟県",
    "url": "https://surfsnow.jp/guide/htm/r0801s.htm"
  },
  {
    "name": "古志高原スキー場",
    "skiID": 279,
    "latitude": 37.31847911,
    "longitude": 138.887337,
    "region": "新潟県",
    "url": "https://surfsnow.jp/guide/htm/r0806s.htm"
  },
  {
    "name": "関温泉スキー場",
    "skiID": 280,
    "latitude": 36.90611955,
    "longitude": 138.1618975,
    "region": "新潟県",
    "url": "https://surfsnow.jp/guide/htm/r0783s.htm"
  },
  {
    "name": "ジュネス栗駒スキー場",
    "skiID": 281,
    "latitude": 39.15913477,
    "longitude": 140.7262545,
    "region": "秋田県",
    "url": "https://surfsnow.jp/guide/htm/r0175s.htm"
  },
  {
    "name": "鳥海高原矢島スキー場",
    "skiID": 282,
    "latitude": 39.19053553,
    "longitude": 140.0930744,
    "region": "秋田県",
    "url": "https://surfsnow.jp/guide/htm/r0250s.htm"
  },
  {
    "name": "たざわ湖スキー場",
    "skiID": 283,
    "latitude": 39.78965554,
    "longitude": 140.7668211,
    "region": "秋田県",
    "url": "https://surfsnow.jp/guide/htm/r0263s.htm"
  },
  {
    "name": "太平山スキー場 オーパス",
    "skiID": 284,
    "latitude": 39.78758501,
    "longitude": 140.2197006,
    "region": "秋田県",
    "url": "https://surfsnow.jp/guide/htm/r0717s.htm"
  },
  {
    "name": "阿仁スキー場",
    "skiID": 285,
    "latitude": 39.95749614,
    "longitude": 140.497654,
    "region": "秋田県",
    "url": "https://surfsnow.jp/guide/htm/r0719s.htm"
  },
  {
    "name": "水晶山スキー場",
    "skiID": 286,
    "latitude": 40.17758943,
    "longitude": 140.7638484,
    "region": "秋田県",
    "url": "https://surfsnow.jp/guide/htm/r0721s.htm"
  },
  {
    "name": "大仙市営協和スキー場",
    "skiID": 287,
    "latitude": 39.68091984,
    "longitude": 140.3928466,
    "region": "秋田県",
    "url": "https://surfsnow.jp/guide/htm/r0722s.htm"
  },
  {
    "name": "秋田八幡平スキー場",
    "skiID": 288,
    "latitude": 39.97873218,
    "longitude": 140.8011676,
    "region": "秋田県",
    "url": "https://surfsnow.jp/guide/htm/r0728s.htm"
  },
  {
    "name": "藤里町営スキー場",
    "skiID": 289,
    "latitude": 40.32155041,
    "longitude": 140.2922173,
    "region": "秋田県",
    "url": "https://surfsnow.jp/guide/htm/r0729s.htm"
  },
  {
    "name": "稲川スキー場",
    "skiID": 290,
    "latitude": 39.1670238,
    "longitude": 140.5418793,
    "region": "秋田県",
    "url": "https://surfsnow.jp/guide/htm/r0732s.htm"
  },
  {
    "name": "大仙市営大曲ファミリースキー場",
    "skiID": 291,
    "latitude": 39.44044713,
    "longitude": 140.4335194,
    "region": "秋田県",
    "url": "https://surfsnow.jp/guide/htm/r0731s.htm"
  },
  {
    "name": "大仙市営大台スキー場",
    "skiID": 292,
    "latitude": 39.51931711,
    "longitude": 140.6551712,
    "region": "秋田県",
    "url": "https://surfsnow.jp/guide/htm/r0723s.htm"
  },
  {
    "name": "花輪スキー場",
    "skiID": 293,
    "latitude": 40.1885345,
    "longitude": 140.8235993,
    "region": "秋田県",
    "url": "https://surfsnow.jp/guide/htm/r0950s.htm"
  },
  {
    "name": "横手市天下森スキー場",
    "skiID": 294,
    "latitude": 39.16230754,
    "longitude": 140.6216836,
    "region": "秋田県",
    "url": "https://surfsnow.jp/guide/htm/r0725s.htm"
  },
  {
    "name": "箱館山スキー場",
    "skiID": 295,
    "latitude": 35.43859717,
    "longitude": 135.9863133,
    "region": "滋賀県",
    "url": "https://surfsnow.jp/guide/htm/r0136s.htm"
  },
  {
    "name": "グランスノー奥伊吹（旧名称 奥伊吹スキー場）",
    "skiID": 296,
    "latitude": 35.52169762,
    "longitude": 136.3867113,
    "region": "滋賀県",
    "url": "https://surfsnow.jp/guide/htm/r0244s.htm"
  },
  {
    "name": "びわ湖バレイ",
    "skiID": 297,
    "latitude": 35.21312206,
    "longitude": 135.895882,
    "region": "滋賀県",
    "url": "https://surfsnow.jp/guide/htm/r0254s.htm"
  },
  {
    "name": "余呉高原リゾート・ヤップ",
    "skiID": 298,
    "latitude": 35.69850967,
    "longitude": 136.1579775,
    "region": "滋賀県",
    "url": "https://surfsnow.jp/guide/htm/r0014s.htm"
  },
  {
    "name": "朽木スキー場",
    "skiID": 299,
    "latitude": 35.32920803,
    "longitude": 135.9397279,
    "region": "滋賀県",
    "url": "https://surfsnow.jp/guide/htm/r0889s.htm"
  },
  {
    "name": "赤子山スキー場",
    "skiID": 300,
    "latitude": 35.54692522,
    "longitude": 136.2196864,
    "region": "滋賀県",
    "url": "https://surfsnow.jp/guide/htm/r0891s.htm"
  },
  {
    "name": "シャトレーゼスキーバレー野辺山",
    "skiID": 301,
    "latitude": 35.93078634,
    "longitude": 138.4953901,
    "region": "山梨県",
    "url": "https://surfsnow.jp/guide/htm/r0106s.htm"
  },
  {
    "name": "サンメドウズ清里スキー場",
    "skiID": 302,
    "latitude": 35.94774963,
    "longitude": 138.4144927,
    "region": "山梨県",
    "url": "https://surfsnow.jp/guide/htm/r0018s.htm"
  },
  {
    "name": "ふじてんスノーリゾート",
    "skiID": 303,
    "latitude": 35.44225827,
    "longitude": 138.6881747,
    "region": "山梨県",
    "url": "https://surfsnow.jp/guide/htm/r0107s.htm"
  },
  {
    "name": "カムイみさかスキー場",
    "skiID": 304,
    "latitude": 35.58266748,
    "longitude": 138.7532186,
    "region": "山梨県",
    "url": "https://surfsnow.jp/guide/htm/r0325s.htm"
  },
  {
    "name": "Asahi自然観 SNOW PARK",
    "skiID": 305,
    "latitude": 38.30519322,
    "longitude": 140.0540172,
    "region": "山形県",
    "url": "https://surfsnow.jp/guide/htm/r0256s.htm"
  },
  {
    "name": "黒伏高原スノーパーク ジャングル・ジャングル",
    "skiID": 306,
    "latitude": 38.43615275,
    "longitude": 140.5434288,
    "region": "山形県",
    "url": "https://surfsnow.jp/guide/htm/r0203s.htm"
  },
  {
    "name": "蔵王温泉スキー場",
    "skiID": 307,
    "latitude": 38.16797435,
    "longitude": 140.4171741,
    "region": "山形県",
    "url": "https://surfsnow.jp/guide/htm/r0177s.htm"
  },
  {
    "name": "天元台高原",
    "skiID": 308,
    "latitude": 37.77461005,
    "longitude": 140.1365601,
    "region": "山形県",
    "url": "https://surfsnow.jp/guide/htm/r0211s.htm"
  },
  {
    "name": "米沢スキー場",
    "skiID": 309,
    "latitude": 37.87644161,
    "longitude": 140.2381429,
    "region": "山形県",
    "url": "https://surfsnow.jp/guide/htm/r0227s.htm"
  },
  {
    "name": "蔵王ライザワールド",
    "skiID": 310,
    "latitude": 38.12421878,
    "longitude": 140.4053167,
    "region": "山形県",
    "url": "https://surfsnow.jp/guide/htm/r0733s.htm"
  },
  {
    "name": "松山スキー場",
    "skiID": 311,
    "latitude": 38.85967803,
    "longitude": 139.9808177,
    "region": "山形県",
    "url": "https://surfsnow.jp/guide/htm/r0734s.htm"
  },
  {
    "name": "天童高原スキー場",
    "skiID": 312,
    "latitude": 38.34677166,
    "longitude": 140.4817917,
    "region": "山形県",
    "url": "https://surfsnow.jp/guide/htm/r0738s.htm"
  },
  {
    "name": "羽黒山スキー場",
    "skiID": 313,
    "latitude": 38.69297981,
    "longitude": 139.9847731,
    "region": "山形県",
    "url": "https://surfsnow.jp/guide/htm/r0740s.htm"
  },
  {
    "name": "櫛引たらのきだいスキー場",
    "skiID": 314,
    "latitude": 38.65268278,
    "longitude": 139.9127773,
    "region": "山形県",
    "url": "https://surfsnow.jp/guide/htm/r0741s.htm"
  },
  {
    "name": "湯殿山スキー場",
    "skiID": 315,
    "latitude": 38.57976405,
    "longitude": 139.9423943,
    "region": "山形県",
    "url": "https://surfsnow.jp/guide/htm/r0742s.htm"
  },
  {
    "name": "西川町民スキー場",
    "skiID": 316,
    "latitude": 38.43677478,
    "longitude": 140.1256568,
    "region": "山形県",
    "url": "https://surfsnow.jp/guide/htm/r0743s.htm"
  },
  {
    "name": "白鷹町営スキー場",
    "skiID": 317,
    "latitude": 38.2359917,
    "longitude": 140.1545886,
    "region": "山形県",
    "url": "https://surfsnow.jp/guide/htm/r0745s.htm"
  },
  {
    "name": "蔵王猿倉スキー場",
    "skiID": 318,
    "latitude": 38.12854341,
    "longitude": 140.376403,
    "region": "山形県",
    "url": "https://surfsnow.jp/guide/htm/r0746s.htm"
  },
  {
    "name": "グリーンバレー神室スキー場",
    "skiID": 319,
    "latitude": 38.91676765,
    "longitude": 140.3939619,
    "region": "山形県",
    "url": "https://surfsnow.jp/guide/htm/r0751s.htm"
  },
  {
    "name": "女鹿平温泉めがひらスキー場",
    "skiID": 320,
    "latitude": 34.49824548,
    "longitude": 132.1430897,
    "region": "広島県",
    "url": "https://surfsnow.jp/guide/htm/r0200s.htm"
  },
  {
    "name": "大佐スキー場",
    "skiID": 321,
    "latitude": 34.74803735,
    "longitude": 132.2200188,
    "region": "広島県",
    "url": "https://surfsnow.jp/guide/htm/r0919s.htm"
  },
  {
    "name": "恐羅漢スノーパーク",
    "skiID": 322,
    "latitude": 34.59590288,
    "longitude": 132.1466082,
    "region": "広島県",
    "url": "https://surfsnow.jp/guide/htm/r0922s.htm"
  },
  {
    "name": "もみのき森林公園スキー場",
    "skiID": 323,
    "latitude": 34.48445701,
    "longitude": 132.1763662,
    "region": "広島県",
    "url": "https://surfsnow.jp/guide/htm/r0926s.htm"
  },
  {
    "name": "やわたハイランド191リゾート",
    "skiID": 324,
    "latitude": 34.69466633,
    "longitude": 132.1599055,
    "region": "広島県",
    "url": "https://surfsnow.jp/guide/htm/r0948s.htm"
  },
  {
    "name": "道後山高原スキー場",
    "skiID": 325,
    "latitude": 35.05661161,
    "longitude": 133.2035262,
    "region": "広島県",
    "url": "https://surfsnow.jp/guide/htm/r0925s.htm"
  },
  {
    "name": "ユートピアサイオト",
    "skiID": 326,
    "latitude": 34.78605275,
    "longitude": 132.317338,
    "region": "広島県",
    "url": "https://surfsnow.jp/guide/htm/r0239s.htm"
  },
  {
    "name": "りんご今日話国スキー場",
    "skiID": 327,
    "latitude": 35.02297379,
    "longitude": 132.8739161,
    "region": "広島県",
    "url": "https://surfsnow.jp/guide/htm/r0927s.htm"
  },
  {
    "name": "たんばらスキーパーク",
    "skiID": 328,
    "latitude": 36.77860702,
    "longitude": 139.0727878,
    "region": "群馬県",
    "url": "https://surfsnow.jp/guide/htm/r0170s.htm"
  },
  {
    "name": "川場スキー場",
    "skiID": 329,
    "latitude": 36.76904718,
    "longitude": 139.1080382,
    "region": "群馬県",
    "url": "https://surfsnow.jp/guide/htm/r0210s.htm"
  },
  {
    "name": "丸沼高原スキー場",
    "skiID": 330,
    "latitude": 36.81476181,
    "longitude": 139.3299884,
    "region": "群馬県",
    "url": "https://surfsnow.jp/guide/htm/r0025s.htm"
  },
  {
    "name": "スノーパーク尾瀬戸倉",
    "skiID": 331,
    "latitude": 36.85117641,
    "longitude": 139.239055,
    "region": "群馬県",
    "url": "https://surfsnow.jp/guide/htm/r0115s.htm"
  },
  {
    "name": "ホワイトバレースキー場",
    "skiID": 332,
    "latitude": 36.79499788,
    "longitude": 138.957248,
    "region": "群馬県",
    "url": "https://surfsnow.jp/guide/htm/r0116s.htm"
  },
  {
    "name": "ホワイトワールド尾瀬岩鞍",
    "skiID": 333,
    "latitude": 36.81517835,
    "longitude": 139.2201014,
    "region": "群馬県",
    "url": "https://surfsnow.jp/guide/htm/r0059s.htm"
  },
  {
    "name": "奥利根スノーパーク",
    "skiID": 334,
    "latitude": 36.80350599,
    "longitude": 139.0066446,
    "region": "群馬県",
    "url": "https://surfsnow.jp/guide/htm/r0074s.htm"
  },
  {
    "name": "水上高原スキーリゾート",
    "skiID": 335,
    "latitude": 36.85893344,
    "longitude": 139.0775139,
    "region": "群馬県",
    "url": "https://surfsnow.jp/guide/htm/r0126s.htm"
  },
  {
    "name": "ノルンみなかみスキー場",
    "skiID": 336,
    "latitude": 36.74352044,
    "longitude": 138.9421911,
    "region": "群馬県",
    "url": "https://surfsnow.jp/guide/htm/r0071s.htm"
  },
  {
    "name": "鹿沢スノーエリア",
    "skiID": 337,
    "latitude": 36.47160549,
    "longitude": 138.4295754,
    "region": "群馬県",
    "url": "https://surfsnow.jp/guide/htm/r0035s.htm"
  },
  {
    "name": "草津温泉スキー場",
    "skiID": 338,
    "latitude": 36.6290489,
    "longitude": 138.5871835,
    "region": "群馬県",
    "url": "https://surfsnow.jp/guide/htm/r0038s.htm"
  },
  {
    "name": "万座温泉スキー場",
    "skiID": 339,
    "latitude": 36.63597313,
    "longitude": 138.50613,
    "region": "群馬県",
    "url": "https://surfsnow.jp/guide/htm/r0127s.htm"
  },
  {
    "name": "パルコール嬬恋リゾート",
    "skiID": 340,
    "latitude": 36.55595571,
    "longitude": 138.4639646,
    "region": "群馬県",
    "url": "https://surfsnow.jp/guide/htm/r0147s.htm"
  },
  {
    "name": "軽井沢スノーパーク",
    "skiID": 341,
    "latitude": 36.4238189,
    "longitude": 138.6272498,
    "region": "群馬県",
    "url": "https://surfsnow.jp/guide/htm/r0166s.htm"
  },
  {
    "name": "かたしな高原スキー場",
    "skiID": 342,
    "latitude": 36.8113599,
    "longitude": 139.2297429,
    "region": "群馬県",
    "url": "https://surfsnow.jp/guide/htm/r0303s.htm"
  },
  {
    "name": "水上高原・奥利根温泉 藤原スキー場",
    "skiID": 343,
    "latitude": 36.85106458,
    "longitude": 139.0697541,
    "region": "群馬県",
    "url": "https://surfsnow.jp/guide/htm/r0335s.htm"
  },
  {
    "name": "谷川岳天神平スキー場",
    "skiID": 344,
    "latitude": 36.81816642,
    "longitude": 138.9482599,
    "region": "群馬県",
    "url": "https://surfsnow.jp/guide/htm/r0769s.htm"
  },
  {
    "name": "群馬みなかみほうだいぎスキー場（旧 宝台樹スキー場）",
    "skiID": 345,
    "latitude": 36.83745434,
    "longitude": 139.0783449,
    "region": "群馬県",
    "url": "https://surfsnow.jp/guide/htm/r0771s.htm"
  },
  {
    "name": "オグナほたかスキー場",
    "skiID": 346,
    "latitude": 36.78091939,
    "longitude": 139.1679668,
    "region": "群馬県",
    "url": "https://surfsnow.jp/guide/htm/r0774s.htm"
  },
  {
    "name": "高峰マウンテンパーク（旧アサマ2000パーク）",
    "skiID": 347,
    "latitude": 36.40797275,
    "longitude": 138.4692813,
    "region": "群馬県",
    "url": "https://surfsnow.jp/guide/htm/r0836s.htm"
  },
  {
    "name": "ホワイトバレースキー場",
    "skiID": 348,
    "latitude": 36.79495924,
    "longitude": 138.9573284,
    "region": "群馬県",
    "url": "https://surfsnow.jp/guide/htm/r0116s.htm"
  },
  {
    "name": "赤城山 第一スキー場",
    "skiID": 349,
    "latitude": 36.54605127,
    "longitude": 139.1840169,
    "region": "群馬県",
    "url": "https://surfsnow.jp/guide/htm/r0963s.htm"
  },
  {
    "name": "オニコウベスキー場",
    "skiID": 350,
    "latitude": 38.78716023,
    "longitude": 140.6395355,
    "region": "宮城県",
    "url": "https://surfsnow.jp/guide/htm/r0186s.htm"
  },
  {
    "name": "みやぎ蔵王えぼしリゾート",
    "skiID": 351,
    "latitude": 38.12685831,
    "longitude": 140.5287579,
    "region": "宮城県",
    "url": "https://surfsnow.jp/guide/htm/r0024s.htm"
  },
  {
    "name": "みやぎ蔵王七ヶ宿スキー場",
    "skiID": 352,
    "latitude": 37.9987978,
    "longitude": 140.3667566,
    "region": "宮城県",
    "url": "https://surfsnow.jp/guide/htm/r0235s.htm"
  },
  {
    "name": "スプリングバレー仙台泉スキー場",
    "skiID": 353,
    "latitude": 38.41891587,
    "longitude": 140.7231852,
    "region": "宮城県",
    "url": "https://surfsnow.jp/guide/htm/r0258s.htm"
  },
  {
    "name": "みやぎ蔵王白石スキー場",
    "skiID": 354,
    "latitude": 38.06856965,
    "longitude": 140.513309,
    "region": "宮城県",
    "url": "https://surfsnow.jp/guide/htm/r0713s.htm"
  },
  {
    "name": "スプリングバレー仙台泉スキー場",
    "skiID": 355,
    "latitude": 38.41894532,
    "longitude": 140.7230511,
    "region": "宮城県",
    "url": "https://surfsnow.jp/guide/htm/r0258s.htm"
  },
  {
    "name": "泉ヶ岳スキー場",
    "skiID": 356,
    "latitude": 38.39085718,
    "longitude": 140.7208471,
    "region": "宮城県",
    "url": "https://surfsnow.jp/guide/htm/r0715s.htm"
  },
  {
    "name": " みやぎ蔵王七ヶ宿スキー場",
    "skiID": 357,
    "latitude": 37.9988866,
    "longitude": 140.3668692,
    "region": "宮城県",
    "url": "https://surfsnow.jp/guide/htm/r0235s.htm"
  },
  {
    "name": "マウンテンフィールド宮城蔵王すみかわスノーパーク",
    "skiID": 358,
    "latitude": 38.13512615,
    "longitude": 140.4948002,
    "region": "宮城県",
    "url": "https://surfsnow.jp/guide/htm/r0217s.htm"
  },
  {
    "name": "上野々スキー場",
    "skiID": 359,
    "latitude": 38.73345717,
    "longitude": 140.7124576,
    "region": "宮城県",
    "url": "https://surfsnow.jp/guide/htm/r0994s.htm"
  },
  {
    "name": "モンデウス飛騨位山スノーパーク",
    "skiID": 360,
    "latitude": 36.06172072,
    "longitude": 137.2264419,
    "region": "岐阜県",
    "url": "https://www.city.takayama.lg.jp/shisetsu/1004139/1000043/1018844.html"
  },
  {
    "name": "ひるがの高原スキー場",
    "skiID": 361,
    "latitude": 36.00567083,
    "longitude": 136.908505,
    "region": "岐阜県",
    "url": "https://surfsnow.jp/guide/htm/r0272s.htm"
  },
  {
    "name": "高鷲スノーパーク",
    "skiID": 362,
    "latitude": 35.9984044,
    "longitude": 136.8773453,
    "region": "岐阜県",
    "url": "https://surfsnow.jp/guide/htm/r0212s.htm"
  },
  {
    "name": "ダイナランド",
    "skiID": 363,
    "latitude": 35.9903499,
    "longitude": 136.870571,
    "region": "岐阜県",
    "url": "https://surfsnow.jp/guide/htm/r0231s.htm"
  },
  {
    "name": "スノーウェーブパーク白鳥高原",
    "skiID": 364,
    "latitude": 35.95740766,
    "longitude": 136.8050193,
    "region": "岐阜県",
    "url": "https://surfsnow.jp/guide/htm/r0252s.htm"
  },
  {
    "name": "ホワイトピアたかす",
    "skiID": 365,
    "latitude": 35.95602099,
    "longitude": 136.935106,
    "region": "岐阜県",
    "url": "https://surfsnow.jp/guide/htm/r0194s.htm"
  },
  {
    "name": "鷲ヶ岳スキー場",
    "skiID": 366,
    "latitude": 35.9425622,
    "longitude": 136.9194541,
    "region": "岐阜県",
    "url": "https://surfsnow.jp/guide/htm/r0224s.htm"
  },
  {
    "name": "めいほうスキー場",
    "skiID": 367,
    "latitude": 35.94183683,
    "longitude": 137.0428833,
    "region": "岐阜県",
    "url": "https://surfsnow.jp/guide/htm/r0138s.htm"
  },
  {
    "name": "ウイングヒルズ白鳥リゾート",
    "skiID": 368,
    "latitude": 35.96611188,
    "longitude": 136.8028298,
    "region": "岐阜県",
    "url": "https://surfsnow.jp/guide/htm/r0199s.htm"
  },
  {
    "name": "飛騨かわいスキー場",
    "skiID": 369,
    "latitude": 36.23983974,
    "longitude": 137.0821014,
    "region": "岐阜県",
    "url": "https://surfsnow.jp/guide/htm/r0873s.htm"
  },
  {
    "name": "飛騨ほおのき平スキー場",
    "skiID": 370,
    "latitude": 36.17601395,
    "longitude": 137.4909971,
    "region": "岐阜県",
    "url": "https://surfsnow.jp/guide/htm/r0874s.htm"
  },
  {
    "name": "平湯温泉スキー場",
    "skiID": 371,
    "latitude": 36.18494508,
    "longitude": 137.5528973,
    "region": "岐阜県",
    "url": "https://surfsnow.jp/guide/htm/r0876s.htm"
  },
  {
    "name": "ひだ流葉スキー場",
    "skiID": 372,
    "latitude": 36.33229514,
    "longitude": 137.2503622,
    "region": "岐阜県",
    "url": "https://surfsnow.jp/guide/htm/r0877s.htm"
  },
  {
    "name": "飛騨高山スキー場",
    "skiID": 373,
    "latitude": 36.14680954,
    "longitude": 137.4304519,
    "region": "岐阜県",
    "url": "https://surfsnow.jp/guide/htm/r0878s.htm"
  },
  {
    "name": "荘川高原スキー場",
    "skiID": 374,
    "latitude": 36.0585065,
    "longitude": 136.9574876,
    "region": "岐阜県",
    "url": "https://surfsnow.jp/guide/htm/r0879s.htm"
  },
  {
    "name": "郡上高原スキー場",
    "skiID": 375,
    "latitude": 35.97535385,
    "longitude": 136.9405414,
    "region": "岐阜県",
    "url": "https://surfsnow.jp/guide/htm/r0867s.htm"
  },
  {
    "name": "安比高原スキー場",
    "skiID": 376,
    "latitude": 40.00233926,
    "longitude": 140.970616,
    "region": "岩手県",
    "url": "https://surfsnow.jp/guide/htm/r0226s.htm"
  },
  {
    "name": "八幡平リゾート パノラマスキー場＆下倉スキー場",
    "skiID": 377,
    "latitude": 39.89485892,
    "longitude": 140.9751638,
    "region": "岩手県",
    "url": "https://surfsnow.jp/guide/htm/r0009s.htm"
  },
  {
    "name": "雫石スキー場",
    "skiID": 378,
    "latitude": 39.77386239,
    "longitude": 140.9244311,
    "region": "岩手県",
    "url": "https://surfsnow.jp/guide/htm/r0122s.htm"
  },
  {
    "name": "岩手高原スノーパーク",
    "skiID": 379,
    "latitude": 39.81400835,
    "longitude": 140.966359,
    "region": "岩手県",
    "url": "https://surfsnow.jp/guide/htm/r0251s.htm"
  },
  {
    "name": "夏油高原スキー場",
    "skiID": 380,
    "latitude": 39.2530867,
    "longitude": 140.9128483,
    "region": "岩手県",
    "url": "https://surfsnow.jp/guide/htm/r0270s.htm"
  },
  {
    "name": "奥中山高原スキー場",
    "skiID": 381,
    "latitude": 40.0833834,
    "longitude": 141.191285,
    "region": "岩手県",
    "url": "https://surfsnow.jp/guide/htm/r0699s.htm"
  },
  {
    "name": "網張温泉スキー場",
    "skiID": 382,
    "latitude": 39.82150985,
    "longitude": 140.936329,
    "region": "岩手県",
    "url": "https://surfsnow.jp/guide/htm/r0700s.htm"
  },
  {
    "name": "ひめかゆスキー場",
    "skiID": 383,
    "latitude": 39.12840438,
    "longitude": 140.9419441,
    "region": "岩手県",
    "url": "https://surfsnow.jp/guide/htm/r0703s.htm"
  },
  {
    "name": "八幡平市 田山スキー場",
    "skiID": 384,
    "latitude": 40.13483695,
    "longitude": 140.9517928,
    "region": "岩手県",
    "url": "https://surfsnow.jp/guide/htm/r0704s.htm"
  },
  {
    "name": "町営湯田スキー場",
    "skiID": 385,
    "latitude": 39.33774451,
    "longitude": 140.7850504,
    "region": "岩手県",
    "url": "https://surfsnow.jp/guide/htm/r0708s.htm"
  },
  {
    "name": "町営 志賀来スキー場",
    "skiID": 386,
    "latitude": 39.40301699,
    "longitude": 140.7698921,
    "region": "岩手県",
    "url": "https://www.town.nishiwaga.lg.jp/soshikikarasagasu/kyoikuiinkai_shogaigakushuuka/1/3/4/1299.html"
  },
  {
    "name": "国見平スキー場",
    "skiID": 387,
    "latitude": 39.06026864,
    "longitude": 140.9701966,
    "region": "岩手県",
    "url": "https://surfsnow.jp/guide/htm/r1019s.htm"
  },
  {
    "name": "平庭高原スキー場",
    "skiID": 388,
    "latitude": 40.08309132,
    "longitude": 141.5030244,
    "region": "岩手県",
    "url": "https://surfsnow.jp/guide/htm/r0701s.htm"
  },
  {
    "name": "くのへスキー場",
    "skiID": 389,
    "latitude": 40.19464798,
    "longitude": 141.4086607,
    "region": "岩手県",
    "url": "https://surfsnow.jp/guide/htm/r0991s.htm"
  },
  {
    "name": "赤羽根スキー場",
    "skiID": 390,
    "latitude": 39.24773871,
    "longitude": 141.5965304,
    "region": "岩手県",
    "url": "https://surfsnow.jp/guide/htm/r0992s.htm"
  },
  {
    "name": "花巻市鉛温泉スキー場",
    "skiID": 391,
    "latitude": 39.46322067,
    "longitude": 140.9933904,
    "region": "岩手県",
    "url": "https://surfsnow.jp/guide/htm/r0702s.htm"
  },
  {
    "name": "ひるぜんベアバレースキー場",
    "skiID": 392,
    "latitude": 35.26146211,
    "longitude": 133.596285,
    "region": "岡山県",
    "url": "https://surfsnow.jp/guide/htm/r0912s.htm"
  },
  {
    "name": "恩原高原スキー場",
    "skiID": 393,
    "latitude": 35.31976812,
    "longitude": 133.9814874,
    "region": "岡山県",
    "url": "https://surfsnow.jp/guide/htm/r0914s.htm"
  },
  {
    "name": "ひるぜんキッズスノーパーク",
    "skiID": 394,
    "latitude": 35.29539507,
    "longitude": 133.631073,
    "region": "岡山県",
    "url": "https://surfsnow.jp/guide/htm/r1014s.htm"
  },
  {
    "name": "いぶきの里スキー場",
    "skiID": 395,
    "latitude": 35.16913356,
    "longitude": 133.4093418,
    "region": "岡山県",
    "url": "https://surfsnow.jp/guide/htm/r0916s.htm"
  },
  {
    "name": "久万スキーランド",
    "skiID": 396,
    "latitude": 33.71867694,
    "longitude": 132.8744327,
    "region": "愛媛県",
    "url": "https://surfsnow.jp/guide/htm/r0934s.htm"
  },
  {
    "name": "石鎚スキー場",
    "skiID": 397,
    "latitude": 33.79348577,
    "longitude": 133.1274131,
    "region": "愛媛県",
    "url": "https://surfsnow.jp/guide/htm/r0935s.htm"
  },
  {
    "name": "茶臼山高原スキー場",
    "skiID": 398,
    "latitude": 35.22031381,
    "longitude": 137.6550929,
    "region": "愛知県",
    "url": "https://surfsnow.jp/guide/htm/r0264s.htm"
  },
  {
    "name": "十種ヶ峰スキー場",
    "skiID": 399,
    "latitude": 34.45222825,
    "longitude": 131.6957996,
    "region": "山口県",
    "url": "https://surfsnow.jp/guide/htm/r0929s.htm"
  },
  {
    "name": "グリーンバレー神室・神室スキー場",
    "skiID": 400,
    "latitude": 38.91674307,
    "longitude": 140.3940383,
    "region": "山形県",
    "url": "https://surfsnow.jp/guide/htm/r0751s.htm"
  },
  {
    "name": "新庄市民スキー場",
    "skiID": 401,
    "latitude": 38.79689614,
    "longitude": 140.3560136,
    "region": "山形県",
    "url": "https://surfsnow.jp/guide/htm/r0755s.htm"
  },
  {
    "name": "やまがた 赤倉温泉スキー場",
    "skiID": 402,
    "latitude": 38.70559331,
    "longitude": 140.5442402,
    "region": "山形県",
    "url": "https://surfsnow.jp/guide/htm/r0739s.htm"
  },
  {
    "name": "月山スキー場",
    "skiID": 403,
    "latitude": 38.51894173,
    "longitude": 140.0065482,
    "region": "山形県",
    "url": "https://surfsnow.jp/guide/htm/r0747s.htm"
  },
  {
    "name": "小国町横根スキー場",
    "skiID": 404,
    "latitude": 38.07075128,
    "longitude": 139.7310589,
    "region": "山形県",
    "url": "https://surfsnow.jp/guide/htm/r0752s.htm"
  },
  {
    "name": "花笠高原スキー場",
    "skiID": 405,
    "latitude": 38.53680362,
    "longitude": 140.5088292,
    "region": "山形県",
    "url": "https://surfsnow.jp/guide/htm/r0748s.htm"
  },
  {
    "name": "小野川温泉スキー場",
    "skiID": 406,
    "latitude": 37.8779582,
    "longitude": 140.0577001,
    "region": "山形県",
    "url": "https://surfsnow.jp/guide/htm/r0995s.htm"
  },
  {
    "name": "手ノ子スキー場",
    "skiID": 407,
    "latitude": 38.0084374,
    "longitude": 139.9707702,
    "region": "山形県",
    "url": "https://surfsnow.jp/guide/htm/r0996s.htm"
  },
  {
    "name": "五ヶ瀬ハイランドスキー場",
    "skiID": 408,
    "latitude": 32.57935473,
    "longitude": 131.1178653,
    "region": "宮崎県",
    "url": "https://surfsnow.jp/guide/htm/r0941s.htm"
  },
  {
    "name": "御在所スキー場",
    "skiID": 409,
    "latitude": 35.02048015,
    "longitude": 136.4236591,
    "region": "三重県",
    "url": "https://surfsnow.jp/guide/htm/r0886s.htm"
  },
  {
    "name": "もみのき森林公園スキー場",
    "skiID": 410,
    "latitude": 34.57556662,
    "longitude": 132.1791556,
    "region": "広島県",
    "url": "https://surfsnow.jp/guide/htm/r0926s.htm"
  },
  {
    "name": "スノーパーク洞川",
    "skiID": 411,
    "latitude": 34.28748703,
    "longitude": 135.8996655,
    "region": "奈良県",
    "url": "https://surfsnow.jp/guide/htm/r0903s.htm"
  },
  {
    "name": "北志賀高原小丸山スキー場",
    "skiID": 412,
    "latitude": 36.79498372,
    "longitude": 138.4486541,
    "region": "長野県",
    "url": "https://surfsnow.jp/guide/htm/r0851s.htm"
  },
  {
    "name": "Ohana Resort（旧名称 国境スノーパーク）",
    "skiID": 413,
    "latitude": 35.53595815,
    "longitude": 136.0924602,
    "region": "滋賀県",
    "url": "https://surfsnow.jp/guide/htm/r0890s.htm"
  },
  {
    "name": "九重スキー場",
    "skiID": 414,
    "latitude": 33.0996643,
    "longitude": 131.178393,
    "region": "大分県",
    "url": "https://surfsnow.jp/guide/htm/r0940s.htm"
  }
]