[
  {
    "name": "栃尾ファミリースキー場",
    "latitude": 37.4374279,
    "longitude": 139.039527,
    "region": "新潟県"
  },
  {
    "name": "大江山スキー場",
    "latitude": 35.4767536,
    "longitude": 135.1624686,
    "region": "京都府"
  },
  {
    "name": "サンメドウズ清里スキー場",
    "latitude": 35.9476294,
    "longitude": 138.4145299,
    "region": "山梨県"
  },
  {
    "name": "安比高原スキー場",
    "latitude": 40.001555,
    "longitude": 140.9700593,
    "region": "岩手県"
  },
  {
    "name": "町営只見スキー場",
    "latitude": 37.3468131,
    "longitude": 139.3097606,
    "region": "福島県"
  },
  {
    "name": "横手山渋峠スキー場",
    "latitude": 36.6819943,
    "longitude": 138.5086077,
    "region": "長野県"
  },
  {
    "name": "ミカタスノーパーク",
    "latitude": 35.4130704,
    "longitude": 134.5268424,
    "region": "兵庫県"
  },
  {
    "name": "ニセコヴィレッジスキーリゾート",
    "latitude": 42.8451908,
    "longitude": 140.6736551,
    "region": "北海道"
  },
  {
    "name": "ニセコアンヌプリスキー場",
    "latitude": 42.8500481,
    "longitude": 140.6494475,
    "region": "北海道"
  },
  {
    "name": "医王山スキー場",
    "latitude": 36.5272934,
    "longitude": 136.7516692,
    "region": "石川県"
  },
  {
    "name": "カマンスキー場",
    "latitude": 36.462774,
    "longitude": 138.433012,
    "region": "群馬県"
  },
  {
    "name": "高峰マウンテンパーク スキー場",
    "latitude": 36.408441,
    "longitude": 138.466365,
    "region": "群馬県"
  },
  {
    "name": "ハイランドスキー場",
    "latitude": 36.468764,
    "longitude": 138.427403,
    "region": "群馬県"
  },
  {
    "name": "子どもの森スキー場",
    "latitude": 37.4802181,
    "longitude": 139.9482882,
    "region": "福島県"
  },
  {
    "name": "グランドサンピア猪苗代リゾートスキー場",
    "latitude": 37.5788874,
    "longitude": 140.060768,
    "region": "福島県"
  },
  {
    "name": "アルツ磐梯スキー場",
    "latitude": 37.5864332,
    "longitude": 140.0336895,
    "region": "福島県"
  },
  {
    "name": "猪苗代スキー場",
    "latitude": 37.5782583,
    "longitude": 140.0956872,
    "region": "福島県"
  },
  {
    "name": "裏磐梯スキー場",
    "latitude": 37.6310941,
    "longitude": 140.0680221,
    "region": "福島県"
  },
  {
    "name": "沼尻スキー場",
    "latitude": 37.6230317,
    "longitude": 140.2281052,
    "region": "福島県"
  },
  {
    "name": "箕輪スキー場",
    "latitude": 37.6517783,
    "longitude": 140.2532699,
    "region": "福島県"
  },
  {
    "name": "横向温泉スキー場",
    "latitude": 37.657593,
    "longitude": 140.2587454,
    "region": "福島県"
  },
  {
    "name": "会津高原 高畑スキー場",
    "latitude": 37.1002306,
    "longitude": 139.4494488,
    "region": "福島県"
  },
  {
    "name": "国設阿寒湖畔スキー場",
    "latitude": 43.4236647,
    "longitude": 144.0849973,
    "region": "北海道"
  },
  {
    "name": "中山峠スキー場",
    "latitude": 42.8494963,
    "longitude": 141.0947137,
    "region": "北海道"
  },
  {
    "name": "猫魔スキー場",
    "latitude": 37.6269867,
    "longitude": 140.0376491,
    "region": "福島県"
  },
  {
    "name": "キューピットバレイスキー場",
    "latitude": 37.0549341,
    "longitude": 138.4847145,
    "region": "新潟県"
  },
  {
    "name": "会津高原だいくらスキー場",
    "latitude": 37.1811391,
    "longitude": 139.6356151,
    "region": "福島県"
  },
  {
    "name": "一の瀬スキー場",
    "latitude": 36.7394271,
    "longitude": 138.513259,
    "region": "長野県"
  },
  {
    "name": "フェアリーランドかねやまスキー場",
    "latitude": 37.4432303,
    "longitude": 139.5410528,
    "region": "福島県"
  },
  {
    "name": "会津美里町営小山スキー場",
    "latitude": 37.4330834,
    "longitude": 139.7976404,
    "region": "福島県"
  },
  {
    "name": "二本松塩沢スキー場",
    "latitude": 37.6396919,
    "longitude": 140.329739,
    "region": "福島県"
  },
  {
    "name": "三島町営スキー場",
    "latitude": 37.4629812,
    "longitude": 139.6365935,
    "region": "福島県"
  },
  {
    "name": "喜多方市三ノ倉スキー場",
    "latitude": 37.7496969,
    "longitude": 139.8668268,
    "region": "福島県"
  },
  {
    "name": "あだたら高原スキー場",
    "latitude": 37.6229319,
    "longitude": 140.3235635,
    "region": "福島県"
  },
  {
    "name": "六甲山スノーパーク",
    "latitude": 34.767114,
    "longitude": 135.2414274,
    "region": "兵庫県"
  },
  {
    "name": "恩原高原スキー場",
    "latitude": 35.3135467,
    "longitude": 133.9838498,
    "region": "岡山県"
  },
  {
    "name": "新庄市民スキー場",
    "latitude": 38.7966833,
    "longitude": 140.3554535,
    "region": "山形県"
  },
  {
    "name": "町営小山スキー場",
    "latitude": 37.4331919,
    "longitude": 139.7975336,
    "region": "福島県"
  },
  {
    "name": "御坂スキー場",
    "latitude": 35.584163,
    "longitude": 138.7523,
    "region": "山梨県"
  },
  {
    "name": "大雪山黒岳スキー場",
    "latitude": 43.7105255,
    "longitude": 142.9393621,
    "region": "北海道"
  },
  {
    "name": "胎内スキー場",
    "latitude": 38.0165928,
    "longitude": 139.5024453,
    "region": "新潟県"
  },
  {
    "name": "ニヤマ高原スキー場",
    "latitude": 41.9366828,
    "longitude": 140.6283505,
    "region": "北海道"
  },
  {
    "name": "伊那スキーリゾート",
    "latitude": 35.8154618,
    "longitude": 137.9126936,
    "region": "長野県"
  },
  {
    "name": "駒ヶ根高原スキー場",
    "latitude": 35.7400496,
    "longitude": 137.8877591,
    "region": "長野県"
  },
  {
    "name": "芸北高原大佐スキー場",
    "latitude": 34.7473327,
    "longitude": 132.2203989,
    "region": "広島県"
  },
  {
    "name": "夏油高原スキー場",
    "latitude": 39.2360373,
    "longitude": 140.9058276,
    "region": "岩手県"
  },
  {
    "name": "だんパラスキー場",
    "latitude": 42.4139426,
    "longitude": 141.0026884,
    "region": "北海道"
  },
  {
    "name": "山の駅 だんパラスキー場",
    "latitude": 42.4139684,
    "longitude": 141.0026834,
    "region": "北海道"
  },
  {
    "name": "サンライバスキー場",
    "latitude": 42.5211026,
    "longitude": 141.1040739,
    "region": "北海道"
  },
  {
    "name": "石狩平原スキー場",
    "latitude": 43.2609003,
    "longitude": 141.5070837,
    "region": "北海道"
  },
  {
    "name": "オニコウベスキー場",
    "latitude": 38.7882777,
    "longitude": 140.6366343,
    "region": "宮城県"
  },
  {
    "name": "米沢スキー場",
    "latitude": 37.8648192,
    "longitude": 140.2319155,
    "region": "山形県"
  },
  {
    "name": "小野川温泉スキー場",
    "latitude": 37.8776671,
    "longitude": 140.0590593,
    "region": "山形県"
  },
  {
    "name": "横根スキー場",
    "latitude": 38.0709657,
    "longitude": 139.7310288,
    "region": "山形県"
  },
  {
    "name": "蔵王猿倉スキー場",
    "latitude": 38.1283848,
    "longitude": 140.3753635,
    "region": "山形県"
  },
  {
    "name": "奥利根スノーパーク",
    "latitude": 36.8024033,
    "longitude": 139.0073486,
    "region": "群馬県"
  },
  {
    "name": "秋山スキー場",
    "latitude": 38.8659645,
    "longitude": 140.2419613,
    "region": "山形県"
  },
  {
    "name": "グレステンスキー場",
    "latitude": 43.6943304,
    "longitude": 144.0303227,
    "region": "北海道"
  },
  {
    "name": "たいらスキー場",
    "latitude": 36.4400493,
    "longitude": 136.9244481,
    "region": "富山県"
  },
  {
    "name": "ノルン水上スキー場",
    "latitude": 36.7437935,
    "longitude": 138.9412866,
    "region": "群馬県"
  },
  {
    "name": "幌延スキー場",
    "latitude": 45.019517,
    "longitude": 141.8539891,
    "region": "北海道"
  },
  {
    "name": "強風が作り出す天然のサンドスキー場",
    "latitude": 34.6427849,
    "longitude": 138.9152902,
    "region": "静岡県"
  },
  {
    "name": "波と風の芸術：龍宮窟とサンドスキー場",
    "latitude": 34.6422744,
    "longitude": 138.9152969,
    "region": "静岡県"
  },
  {
    "name": "赤城山第三スキー場",
    "latitude": 36.5429702,
    "longitude": 139.1871313,
    "region": "群馬県"
  },
  {
    "name": "網張温泉スキー場",
    "latitude": 39.8214108,
    "longitude": 140.936184,
    "region": "岩手県"
  },
  {
    "name": "神立高原スキー場",
    "latitude": 36.9111099,
    "longitude": 138.8128204,
    "region": "新潟県"
  },
  {
    "name": "松之山温泉スキー場",
    "latitude": 37.0505465,
    "longitude": 138.6003795,
    "region": "新潟県"
  },
  {
    "name": "草スキー場",
    "latitude": 31.9941119,
    "longitude": 131.4308943,
    "region": "宮崎県"
  },
  {
    "name": "大仙市営 協和スキー場",
    "latitude": 39.6811235,
    "longitude": 140.3929755,
    "region": "秋田県"
  },
  {
    "name": "後三年スキー場",
    "latitude": 39.3610527,
    "longitude": 140.5477069,
    "region": "秋田県"
  },
  {
    "name": "スキー場",
    "latitude": 39.1627421,
    "longitude": 140.5386367,
    "region": "秋田県"
  },
  {
    "name": "花輪スキー場",
    "latitude": 40.1878564,
    "longitude": 140.8222803,
    "region": "秋田県"
  },
  {
    "name": "町営スキー場",
    "latitude": 40.3228692,
    "longitude": 140.2909914,
    "region": "秋田県"
  },
  {
    "name": "鳥海高原矢島スキー場",
    "latitude": 39.1905761,
    "longitude": 140.0923432,
    "region": "秋田県"
  },
  {
    "name": "たざわ湖スキー場",
    "latitude": 39.762247,
    "longitude": 140.7598306,
    "region": "秋田県"
  },
  {
    "name": "枝幸三笠山スキー場",
    "latitude": 44.933179,
    "longitude": 142.5652352,
    "region": "北海道"
  },
  {
    "name": "横手市 天下森スキー場",
    "latitude": 39.1612075,
    "longitude": 140.6207447,
    "region": "秋田県"
  },
  {
    "name": "さっぽろばんけいスキー場",
    "latitude": 43.0314388,
    "longitude": 141.2781849,
    "region": "北海道"
  },
  {
    "name": "基山草スキー場",
    "latitude": 33.4436444,
    "longitude": 130.5087027,
    "region": "佐賀県"
  },
  {
    "name": "ちくさ高原スキー場",
    "latitude": 35.2184745,
    "longitude": 134.3863245,
    "region": "兵庫県"
  },
  {
    "name": "木曽福島スキー場",
    "latitude": 35.94808,
    "longitude": 137.676262,
    "region": "長野県"
  },
  {
    "name": "スターシュプール飛騨流葉スキー場",
    "latitude": 36.3160327,
    "longitude": 137.2368085,
    "region": "岐阜県"
  },
  {
    "name": "茶臼山高原スキー場",
    "latitude": 35.2172523,
    "longitude": 137.6559112,
    "region": "愛知県"
  },
  {
    "name": "リバウェル井川スキー場",
    "latitude": 35.218303,
    "longitude": 138.2783614,
    "region": "静岡県"
  },
  {
    "name": "五ヶ瀬ハイランドスキー場",
    "latitude": 32.579058,
    "longitude": 131.1177277,
    "region": "宮崎県"
  },
  {
    "name": "開田高原マイアスキー場",
    "latitude": 35.9280444,
    "longitude": 137.5149741,
    "region": "長野県"
  },
  {
    "name": "御在所岳山頂スキー場",
    "latitude": 35.0206751,
    "longitude": 136.4201536,
    "region": "三重県"
  },
  {
    "name": "狭山スキー場",
    "latitude": 35.7675798,
    "longitude": 139.4188786,
    "region": "埼玉県"
  },
  {
    "name": "オコジョランドスキー場",
    "latitude": 39.1710183,
    "longitude": 140.1233114,
    "region": "秋田県"
  },
  {
    "name": "豊富町温泉スキー場",
    "latitude": 45.0759909,
    "longitude": 141.8440715,
    "region": "北海道"
  },
  {
    "name": "伊ノ沢市民スキー場",
    "latitude": 43.7475201,
    "longitude": 142.3314261,
    "region": "北海道"
  },
  {
    "name": "奥只見丸山スキー場",
    "latitude": 37.156476,
    "longitude": 139.229224,
    "region": "新潟県"
  },
  {
    "name": "スキー場",
    "latitude": 37.5185418,
    "longitude": 139.9011245,
    "region": "福島県"
  },
  {
    "name": "太鼓山スキー場",
    "latitude": 41.9220726,
    "longitude": 140.2352087,
    "region": "北海道"
  },
  {
    "name": "こまどりスキー場",
    "latitude": 45.3875312,
    "longitude": 141.6880619,
    "region": "北海道"
  },
  {
    "name": "寿スキー場",
    "latitude": 44.9925746,
    "longitude": 142.2841233,
    "region": "北海道"
  },
  {
    "name": "ピヤシリスキー場",
    "latitude": 44.408922,
    "longitude": 142.51394,
    "region": "北海道"
  },
  {
    "name": "和寒東山スキー場",
    "latitude": 44.0368197,
    "longitude": 142.4174784,
    "region": "北海道"
  },
  {
    "name": "音威富士スキー場",
    "latitude": 44.7211557,
    "longitude": 142.2776181,
    "region": "北海道"
  },
  {
    "name": "ほろたちスキー場",
    "latitude": 44.0149118,
    "longitude": 142.1355954,
    "region": "北海道"
  },
  {
    "name": "町民スキー場",
    "latitude": 42.0982686,
    "longitude": 140.5629821,
    "region": "北海道"
  },
  {
    "name": "グランディ羽鳥湖スキーリゾート",
    "latitude": 37.2130751,
    "longitude": 140.0219225,
    "region": "福島県"
  },
  {
    "name": "会津高原たかつえスキー場",
    "latitude": 37.1156413,
    "longitude": 139.63217,
    "region": "福島県"
  },
  {
    "name": "尾瀬檜枝岐温泉スキー場",
    "latitude": 37.031792,
    "longitude": 139.3981943,
    "region": "福島県"
  },
  {
    "name": "アルツ磐梯スキー場",
    "latitude": 37.5971316,
    "longitude": 140.0370901,
    "region": "福島県"
  },
  {
    "name": "会津高原 高畑スキー場",
    "latitude": 37.0921712,
    "longitude": 139.456119,
    "region": "福島県"
  },
  {
    "name": "柳津温泉スキー場",
    "latitude": 37.5385521,
    "longitude": 139.7131916,
    "region": "福島県"
  },
  {
    "name": "糸魚川シーサイドバレースキー場",
    "latitude": 36.9314446,
    "longitude": 137.8909744,
    "region": "新潟県"
  },
  {
    "name": "爺ガ岳スキー場",
    "latitude": 36.5604044,
    "longitude": 137.7983023,
    "region": "長野県"
  },
  {
    "name": "上ノ国町営湯ノ岱スキー場",
    "latitude": 41.7496687,
    "longitude": 140.2532507,
    "region": "北海道"
  },
  {
    "name": "富士見高原スキー場",
    "latitude": 35.9195616,
    "longitude": 138.3096779,
    "region": "長野県"
  },
  {
    "name": "ウトロスキー場",
    "latitude": 44.0661496,
    "longitude": 145.0050386,
    "region": "北海道"
  },
  {
    "name": "中富良野北星スキー場",
    "latitude": 43.4112217,
    "longitude": 142.4209944,
    "region": "北海道"
  },
  {
    "name": "川場スキー場",
    "latitude": 36.7778093,
    "longitude": 139.1153159,
    "region": "群馬県"
  },
  {
    "name": "ダイナスティ スキーリゾート",
    "latitude": 42.9309019,
    "longitude": 141.451066,
    "region": "北海道"
  },
  {
    "name": "治部坂高原スキー場",
    "latitude": 35.3516317,
    "longitude": 137.6753089,
    "region": "長野県"
  },
  {
    "name": "あららぎスキー場",
    "latitude": 35.4030986,
    "longitude": 137.6718707,
    "region": "長野県"
  },
  {
    "name": "ひらたないスキー場",
    "latitude": 42.1341056,
    "longitude": 140.008774,
    "region": "北海道"
  },
  {
    "name": "那須高原ファミリースキー場",
    "latitude": 37.1188063,
    "longitude": 139.9826427,
    "region": "栃木県"
  },
  {
    "name": "ピリカスキー場",
    "latitude": 42.4616384,
    "longitude": 140.2036985,
    "region": "北海道"
  },
  {
    "name": "札幌藻岩山スキー場",
    "latitude": 43.0155509,
    "longitude": 141.32707,
    "region": "北海道"
  },
  {
    "name": "石打花岡スキー場",
    "latitude": 36.9898808,
    "longitude": 138.7953345,
    "region": "新潟県"
  },
  {
    "name": "網走レイクビュースキー場",
    "latitude": 43.9881459,
    "longitude": 144.2299104,
    "region": "北海道"
  },
  {
    "name": "ハチ北高原スキー場",
    "latitude": 35.4017961,
    "longitude": 134.5417496,
    "region": "兵庫県"
  },
  {
    "name": "ほうのき平スキー場",
    "latitude": 36.1699377,
    "longitude": 137.4914902,
    "region": "岐阜県"
  },
  {
    "name": "北見若松市民スキー場",
    "latitude": 43.7517652,
    "longitude": 143.9223523,
    "region": "北海道"
  },
  {
    "name": "石打丸山スキー場",
    "latitude": 36.9707275,
    "longitude": 138.7922072,
    "region": "新潟県"
  },
  {
    "name": "平湯スキー場",
    "latitude": 36.1843329,
    "longitude": 137.5575751,
    "region": "岐阜県"
  },
  {
    "name": "日の出スキー場",
    "latitude": 43.4625175,
    "longitude": 142.4797851,
    "region": "北海道"
  },
  {
    "name": "ぴっぷスキー場",
    "latitude": 43.9339973,
    "longitude": 142.501467,
    "region": "北海道"
  },
  {
    "name": "みやぎ蔵王七ヶ宿スキー場",
    "latitude": 37.9963659,
    "longitude": 140.3737736,
    "region": "宮城県"
  },
  {
    "name": "みやぎ蔵王白石スキー場",
    "latitude": 38.068575,
    "longitude": 140.5091737,
    "region": "宮城県"
  },
  {
    "name": "みやぎ蔵王スキー場 すみかわスノーパーク",
    "latitude": 38.1300363,
    "longitude": 140.4853793,
    "region": "宮城県"
  },
  {
    "name": "スノーパーク",
    "latitude": 38.2184414,
    "longitude": 140.5170437,
    "region": "宮城県"
  },
  {
    "name": "みやぎ蔵王セントメリースキー場",
    "latitude": 38.2161437,
    "longitude": 140.5122315,
    "region": "宮城県"
  },
  {
    "name": "泉ヶ岳スキー場",
    "latitude": 38.3940613,
    "longitude": 140.7195912,
    "region": "宮城県"
  },
  {
    "name": "スプリングバレー泉高原スキー場",
    "latitude": 38.4184281,
    "longitude": 140.717556,
    "region": "宮城県"
  },
  {
    "name": "上野々スキー場",
    "latitude": 38.7337031,
    "longitude": 140.7138,
    "region": "宮城県"
  },
  {
    "name": "やくらいファミリースキー場",
    "latitude": 38.5755034,
    "longitude": 140.7146853,
    "region": "宮城県"
  },
  {
    "name": "草スキー場",
    "latitude": 32.9571697,
    "longitude": 130.2238134,
    "region": "佐賀県"
  },
  {
    "name": "手ノ子スキー場",
    "latitude": 38.0077785,
    "longitude": 139.9727576,
    "region": "山形県"
  },
  {
    "name": "当麻スキー場",
    "latitude": 43.8365012,
    "longitude": 142.5361695,
    "region": "北海道"
  },
  {
    "name": "蔵王温泉スキー場",
    "latitude": 38.1612714,
    "longitude": 140.4062695,
    "region": "山形県"
  },
  {
    "name": "八千穂高原スキー場",
    "latitude": 36.0687896,
    "longitude": 138.3754395,
    "region": "長野県"
  },
  {
    "name": "長井市道照寺平スキー場",
    "latitude": 38.0914705,
    "longitude": 139.9780217,
    "region": "山形県"
  },
  {
    "name": "栗山スキー場",
    "latitude": 43.0665446,
    "longitude": 141.7845108,
    "region": "北海道"
  },
  {
    "name": "白馬乗鞍スキー場",
    "latitude": 36.7695274,
    "longitude": 137.8704016,
    "region": "長野県"
  },
  {
    "name": "かたしな高原スキー場",
    "latitude": 36.8101329,
    "longitude": 139.2216414,
    "region": "群馬県"
  },
  {
    "name": "田牛サンドスキー場",
    "latitude": 34.6430912,
    "longitude": 138.9158699,
    "region": "静岡県"
  },
  {
    "name": "牛岳温泉スキー場",
    "latitude": 36.5669733,
    "longitude": 137.0551843,
    "region": "富山県"
  },
  {
    "name": "となみ夢の平スキー場",
    "latitude": 36.5841302,
    "longitude": 137.0189481,
    "region": "富山県"
  },
  {
    "name": "水上高原スキーリゾート",
    "latitude": 36.8577807,
    "longitude": 139.0798663,
    "region": "群馬県"
  },
  {
    "name": "藤原スキー場",
    "latitude": 36.8524313,
    "longitude": 139.0687729,
    "region": "群馬県"
  },
  {
    "name": "船平山スキー場",
    "latitude": 34.4268612,
    "longitude": 131.7377181,
    "region": "山口県"
  },
  {
    "name": "大茅スキー場",
    "latitude": 35.2238008,
    "longitude": 134.3679287,
    "region": "岡山県"
  },
  {
    "name": "スキー場",
    "latitude": 35.6291526,
    "longitude": 135.0574057,
    "region": "京都府"
  },
  {
    "name": "九戸スキー場",
    "latitude": 40.1938835,
    "longitude": 141.404854,
    "region": "岩手県"
  },
  {
    "name": "恵庭市民スキー場",
    "latitude": 42.8456216,
    "longitude": 141.4885908,
    "region": "北海道"
  },
  {
    "name": "富良野スキー場",
    "latitude": 43.3326667,
    "longitude": 142.3393688,
    "region": "北海道"
  },
  {
    "name": "仁木町民スキー場",
    "latitude": 43.1160683,
    "longitude": 140.7304021,
    "region": "北海道"
  },
  {
    "name": "八海山スキー場",
    "latitude": 37.1163371,
    "longitude": 138.9849777,
    "region": "新潟県"
  },
  {
    "name": "暑寒別岳スキー場",
    "latitude": 43.8097861,
    "longitude": 141.5290057,
    "region": "北海道"
  },
  {
    "name": "雲辺寺スノーパーク",
    "latitude": 34.0352563,
    "longitude": 133.7206899,
    "region": "香川県"
  },
  {
    "name": "車山高原SKYPARKスキー場",
    "latitude": 36.1042921,
    "longitude": 138.2061518,
    "region": "長野県"
  },
  {
    "name": "ブランシュたかやまスキー場",
    "latitude": 36.1368405,
    "longitude": 138.1982646,
    "region": "長野県"
  },
  {
    "name": "白樺2in1スキー場",
    "latitude": 36.0951015,
    "longitude": 138.2598134,
    "region": "長野県"
  },
  {
    "name": "白樺湖ロイヤルヒルスキー場",
    "latitude": 36.0967155,
    "longitude": 138.2392555,
    "region": "長野県"
  },
  {
    "name": "白樺高原国際スキー場",
    "latitude": 36.1273141,
    "longitude": 138.2794689,
    "region": "長野県"
  },
  {
    "name": "スノーパーク",
    "latitude": 43.9341672,
    "longitude": 142.5065578,
    "region": "北海道"
  },
  {
    "name": "置戸町南ケ丘スキー場",
    "latitude": 43.676078,
    "longitude": 143.5991219,
    "region": "北海道"
  },
  {
    "name": "札幌国際スキー場",
    "latitude": 43.073008,
    "longitude": 141.0703496,
    "region": "北海道"
  },
  {
    "name": "わかさ氷ノ山スキー場",
    "latitude": 35.3473452,
    "longitude": 134.4928297,
    "region": "鳥取県"
  },
  {
    "name": "青森スプリング・スキーリゾート",
    "latitude": 40.6821182,
    "longitude": 140.285797,
    "region": "青森県"
  },
  {
    "name": "湯沢中里スキーリゾート",
    "latitude": 36.9117403,
    "longitude": 138.8546693,
    "region": "新潟県"
  },
  {
    "name": "中里スノーウッドスキー場",
    "latitude": 36.9040767,
    "longitude": 138.8534834,
    "region": "新潟県"
  },
  {
    "name": "岩原スキー場",
    "latitude": 36.9438491,
    "longitude": 138.8421571,
    "region": "新潟県"
  },
  {
    "name": "国設占冠村スキー場",
    "latitude": 42.9732467,
    "longitude": 142.3950639,
    "region": "北海道"
  },
  {
    "name": "天山スキー場",
    "latitude": 33.3495583,
    "longitude": 130.1447548,
    "region": "佐賀県"
  },
  {
    "name": "新保ファミリースキー場",
    "latitude": 35.8548724,
    "longitude": 136.3069099,
    "region": "福井県"
  },
  {
    "name": "芝スキー場",
    "latitude": 34.9021024,
    "longitude": 133.6782395,
    "region": "岡山県"
  },
  {
    "name": "人工草スキー場",
    "latitude": 31.9498794,
    "longitude": 131.4177576,
    "region": "宮崎県"
  },
  {
    "name": "草スキー場",
    "latitude": 31.8779872,
    "longitude": 131.3927822,
    "region": "宮崎県"
  },
  {
    "name": "草スキー場",
    "latitude": 32.0228411,
    "longitude": 131.4606453,
    "region": "宮崎県"
  },
  {
    "name": "ロマントピアスキー場",
    "latitude": 40.5739596,
    "longitude": 140.3914032,
    "region": "青森県"
  },
  {
    "name": "寿都町民スキー場",
    "latitude": 42.7932664,
    "longitude": 140.219847,
    "region": "北海道"
  },
  {
    "name": "市営大山スキー場",
    "latitude": 44.346044,
    "longitude": 143.330402,
    "region": "北海道"
  },
  {
    "name": "湯田スキー場",
    "latitude": 39.3389094,
    "longitude": 140.7855065,
    "region": "岩手県"
  },
  {
    "name": "志賀来スキー場",
    "latitude": 39.3976033,
    "longitude": 140.7722236,
    "region": "岩手県"
  },
  {
    "name": "大仙市営　協和スキー場",
    "latitude": 39.677024,
    "longitude": 140.4006734,
    "region": "秋田県"
  },
  {
    "name": "北秋田市営松森スキー場",
    "latitude": 39.9020671,
    "longitude": 140.4500393,
    "region": "秋田県"
  },
  {
    "name": "薬師山スキー場",
    "latitude": 40.212408,
    "longitude": 140.276922,
    "region": "秋田県"
  },
  {
    "name": "県民の森スキー場",
    "latitude": 35.0676591,
    "longitude": 133.0674603,
    "region": "広島県"
  },
  {
    "name": "草スキー場",
    "latitude": 33.5186319,
    "longitude": 130.3728648,
    "region": "福岡県"
  },
  {
    "name": "稚内市上勇知スキー場",
    "latitude": 45.2577613,
    "longitude": 141.6836095,
    "region": "北海道"
  },
  {
    "name": "大湯温泉スキー場",
    "latitude": 37.1929641,
    "longitude": 139.0825076,
    "region": "新潟県"
  },
  {
    "name": "宝台樹スキー場",
    "latitude": 36.8314162,
    "longitude": 139.0830258,
    "region": "群馬県"
  },
  {
    "name": "オグナほたかスキー場",
    "latitude": 36.7817749,
    "longitude": 139.1655951,
    "region": "群馬県"
  },
  {
    "name": "トマム スキー場",
    "latitude": 43.0701332,
    "longitude": 142.6182596,
    "region": "北海道"
  },
  {
    "name": "プレジデントリゾート軽井沢　軽井沢スノーパーク",
    "latitude": 36.4210687,
    "longitude": 138.6269984,
    "region": "群馬県"
  },
  {
    "name": "利尻富士町 鬼脇石山スキー場",
    "latitude": 45.1409812,
    "longitude": 141.2862717,
    "region": "北海道"
  },
  {
    "name": "新得山スキー場",
    "latitude": 43.0907371,
    "longitude": 142.8267336,
    "region": "北海道"
  },
  {
    "name": "国設南ふらのスキー場",
    "latitude": 43.1567839,
    "longitude": 142.5509496,
    "region": "北海道"
  },
  {
    "name": "メムロスキー場",
    "latitude": 42.8312286,
    "longitude": 142.984939,
    "region": "北海道"
  },
  {
    "name": "ぬかびら源泉郷スキー場",
    "latitude": 43.3573928,
    "longitude": 143.1836163,
    "region": "北海道"
  },
  {
    "name": "鹿島槍スキー場",
    "latitude": 36.600855,
    "longitude": 137.8292135,
    "region": "長野県"
  },
  {
    "name": "いいづなリゾートスキー場",
    "latitude": 36.7412749,
    "longitude": 138.1594138,
    "region": "長野県"
  },
  {
    "name": "黒姫高原スノーパーク",
    "latitude": 36.8250249,
    "longitude": 138.1587652,
    "region": "長野県"
  },
  {
    "name": "妙高杉ノ原スキー場",
    "latitude": 36.8634629,
    "longitude": 138.1371477,
    "region": "新潟県"
  },
  {
    "name": "池の平温泉スキー場",
    "latitude": 36.8735522,
    "longitude": 138.1555275,
    "region": "新潟県"
  },
  {
    "name": "赤倉観光リゾートスキー場",
    "latitude": 36.8902045,
    "longitude": 138.1595875,
    "region": "新潟県"
  },
  {
    "name": "赤倉温泉スキー場",
    "latitude": 36.8964056,
    "longitude": 138.1691817,
    "region": "新潟県"
  },
  {
    "name": "関温泉スキー場",
    "latitude": 36.9057866,
    "longitude": 138.1572137,
    "region": "新潟県"
  },
  {
    "name": "休暇村妙高 ルンルンスキー場",
    "latitude": 36.9104077,
    "longitude": 138.1699453,
    "region": "新潟県"
  },
  {
    "name": "聖高原スキー場",
    "latitude": 36.48701,
    "longitude": 138.0729662,
    "region": "長野県"
  },
  {
    "name": "奥志賀高原スキー場",
    "latitude": 36.7706785,
    "longitude": 138.5228412,
    "region": "長野県"
  },
  {
    "name": "焼額山スキー場",
    "latitude": 36.7526007,
    "longitude": 138.5197701,
    "region": "長野県"
  },
  {
    "name": "一の瀬山の神スキー場",
    "latitude": 36.7433901,
    "longitude": 138.5097908,
    "region": "長野県"
  },
  {
    "name": "一の瀬ダイヤモンドスキー場",
    "latitude": 36.7393643,
    "longitude": 138.5098582,
    "region": "長野県"
  },
  {
    "name": "一の瀬ファミリースキー場",
    "latitude": 36.736183,
    "longitude": 138.5202187,
    "region": "長野県"
  },
  {
    "name": "タンネの森 オコジョスキー場",
    "latitude": 36.733025,
    "longitude": 138.5152819,
    "region": "長野県"
  },
  {
    "name": "高天ヶ原マンモススキー場",
    "latitude": 36.7304526,
    "longitude": 138.5148922,
    "region": "長野県"
  },
  {
    "name": "西館山スキー場",
    "latitude": 36.7274662,
    "longitude": 138.5020576,
    "region": "長野県"
  },
  {
    "name": "サンバレースキー場",
    "latitude": 36.7148284,
    "longitude": 138.4857399,
    "region": "長野県"
  },
  {
    "name": "丸池スキー場",
    "latitude": 36.714968,
    "longitude": 138.4892769,
    "region": "長野県"
  },
  {
    "name": "蓮池スキー場",
    "latitude": 36.714029,
    "longitude": 138.4920401,
    "region": "長野県"
  },
  {
    "name": "ジャイアントスキー場",
    "latitude": 36.7165305,
    "longitude": 138.495158,
    "region": "長野県"
  },
  {
    "name": "発哺ブナ平スキー場",
    "latitude": 36.7219637,
    "longitude": 138.5037493,
    "region": "長野県"
  },
  {
    "name": "東館山スキー場",
    "latitude": 36.726563,
    "longitude": 138.5162801,
    "region": "長野県"
  },
  {
    "name": "寺小屋スキー場",
    "latitude": 36.730002,
    "longitude": 138.5262979,
    "region": "長野県"
  },
  {
    "name": "熊の湯スキー場",
    "latitude": 36.6780709,
    "longitude": 138.4973749,
    "region": "長野県"
  },
  {
    "name": "野沢温泉スキー場",
    "latitude": 36.9170706,
    "longitude": 138.4690375,
    "region": "長野県"
  },
  {
    "name": "ひらや高原スキー場",
    "latitude": 35.3057195,
    "longitude": 137.6245838,
    "region": "長野県"
  },
  {
    "name": "そっち岳スキー場",
    "latitude": 43.5364177,
    "longitude": 141.7976059,
    "region": "北海道"
  },
  {
    "name": "湯沢高原スキー場",
    "latitude": 36.9330969,
    "longitude": 138.7938183,
    "region": "新潟県"
  },
  {
    "name": "一本杉スキー場",
    "latitude": 36.9354298,
    "longitude": 138.8055505,
    "region": "新潟県"
  },
  {
    "name": "湯沢パークスキー場",
    "latitude": 36.9242012,
    "longitude": 138.8594582,
    "region": "新潟県"
  },
  {
    "name": "苗場スキー場",
    "latitude": 36.7939118,
    "longitude": 138.7710177,
    "region": "新潟県"
  },
  {
    "name": "スカイバレイスキー場",
    "latitude": 35.3952732,
    "longitude": 134.5647167,
    "region": "兵庫県"
  },
  {
    "name": "北志賀小丸山スキー場",
    "latitude": 36.7933155,
    "longitude": 138.455942,
    "region": "長野県"
  },
  {
    "name": "木島平スキー場",
    "latitude": 36.8171738,
    "longitude": 138.4041826,
    "region": "長野県"
  },
  {
    "name": "牧の入高原スノーパーク",
    "latitude": 36.8141074,
    "longitude": 138.3974855,
    "region": "長野県"
  },
  {
    "name": "草スキー場",
    "latitude": 32.8203157,
    "longitude": 129.8828052,
    "region": "長崎県"
  },
  {
    "name": "オロフレスキー場",
    "latitude": 42.5578097,
    "longitude": 140.9855697,
    "region": "北海道"
  },
  {
    "name": "美瑛町民スキー場",
    "latitude": 43.5897164,
    "longitude": 142.4448651,
    "region": "北海道"
  },
  {
    "name": "斑尾高原スキー場",
    "latitude": 36.8484342,
    "longitude": 138.2803801,
    "region": "新潟県"
  },
  {
    "name": "標津町金山スキー場",
    "latitude": 43.741443,
    "longitude": 144.9252891,
    "region": "北海道"
  },
  {
    "name": "八海山山麓スキー場",
    "latitude": 37.1583473,
    "longitude": 138.9758092,
    "region": "新潟県"
  },
  {
    "name": "五日町スキー場",
    "latitude": 37.1235691,
    "longitude": 138.8901971,
    "region": "新潟県"
  },
  {
    "name": "シャトー塩沢スキー場",
    "latitude": 37.0535385,
    "longitude": 138.8286225,
    "region": "新潟県"
  },
  {
    "name": "安平山 スキー場",
    "latitude": 42.8643761,
    "longitude": 141.7949654,
    "region": "北海道"
  },
  {
    "name": "あさひスキー場",
    "latitude": 44.1221602,
    "longitude": 142.5975621,
    "region": "北海道"
  },
  {
    "name": "旭ケ丘スキー場",
    "latitude": 42.9008112,
    "longitude": 140.7334618,
    "region": "北海道"
  },
  {
    "name": "朝里川温泉スキー場",
    "latitude": 43.138321,
    "longitude": 141.0259636,
    "region": "北海道"
  },
  {
    "name": "小樽天狗山スキー場",
    "latitude": 43.1736044,
    "longitude": 140.9712758,
    "region": "北海道"
  },
  {
    "name": "ルスツリゾートスキー場",
    "latitude": 42.7311034,
    "longitude": 140.9151646,
    "region": "北海道"
  },
  {
    "name": "若杉高原おおやスキー場",
    "latitude": 35.282435,
    "longitude": 134.5889565,
    "region": "兵庫県"
  },
  {
    "name": "マウントレースイスキー場",
    "latitude": 43.0463437,
    "longitude": 141.9795735,
    "region": "北海道"
  },
  {
    "name": "九重森林公園スキー場",
    "latitude": 33.0977894,
    "longitude": 131.1838249,
    "region": "大分県"
  },
  {
    "name": "安比高原スキー場",
    "latitude": 39.9872008,
    "longitude": 140.9673362,
    "region": "岩手県"
  },
  {
    "name": "月山スキー場",
    "latitude": 38.5280516,
    "longitude": 140.0084777,
    "region": "山形県"
  },
  {
    "name": "阿仁湯口内スキー場",
    "latitude": 40.012771,
    "longitude": 140.3934418,
    "region": "秋田県"
  },
  {
    "name": "八幡平市田山スキー場",
    "latitude": 40.1310338,
    "longitude": 140.9497033,
    "region": "岩手県"
  },
  {
    "name": "南郷スキー場",
    "latitude": 37.2605008,
    "longitude": 139.5580145,
    "region": "福島県"
  },
  {
    "name": "草スキー場",
    "latitude": 32.6626933,
    "longitude": 130.2274873,
    "region": "長崎県"
  },
  {
    "name": "万座温泉スキー場",
    "latitude": 36.6400843,
    "longitude": 138.5018525,
    "region": "群馬県"
  },
  {
    "name": "余呉高原スキー場",
    "latitude": 35.6969569,
    "longitude": 136.1538944,
    "region": "福井県"
  },
  {
    "name": "戸狩温泉スキー場",
    "latitude": 36.9400315,
    "longitude": 138.3804698,
    "region": "長野県"
  },
  {
    "name": "飛騨かわいスキー場",
    "latitude": 36.2350382,
    "longitude": 137.0777127,
    "region": "岐阜県"
  },
  {
    "name": "モンデウス飛騨位山スノーパーク",
    "latitude": 36.0594055,
    "longitude": 137.2214814,
    "region": "岐阜県"
  },
  {
    "name": "カムイみさかスキー場",
    "latitude": 35.5793879,
    "longitude": 138.7542461,
    "region": "山梨県"
  },
  {
    "name": "大曲ファミリースキー場",
    "latitude": 39.4416984,
    "longitude": 140.430324,
    "region": "秋田県"
  },
  {
    "name": "十種ヶ峰スキー場",
    "latitude": 34.4466393,
    "longitude": 131.695084,
    "region": "山口県"
  },
  {
    "name": "女鹿平温泉めがひらスキー場",
    "latitude": 34.4968032,
    "longitude": 132.1348099,
    "region": "広島県"
  },
  {
    "name": "恐羅漢スノーパーク",
    "latitude": 34.5973134,
    "longitude": 132.1389361,
    "region": "広島県"
  },
  {
    "name": "高鷲スノーパーク",
    "latitude": 35.9956728,
    "longitude": 136.8631856,
    "region": "岐阜県"
  },
  {
    "name": "ひるがの高原スキー場",
    "latitude": 36.0057532,
    "longitude": 136.9143808,
    "region": "岐阜県"
  },
  {
    "name": "九頭竜スキー場",
    "latitude": 35.8953075,
    "longitude": 136.6572204,
    "region": "福井県"
  },
  {
    "name": "福井和泉スキー場",
    "latitude": 35.9370817,
    "longitude": 136.6860094,
    "region": "福井県"
  },
  {
    "name": "さかえ倶楽部スキー場",
    "latitude": 36.99993,
    "longitude": 138.5598978,
    "region": "長野県"
  },
  {
    "name": "やぶはら高原 スキー場",
    "latitude": 35.9577534,
    "longitude": 137.7318846,
    "region": "長野県"
  },
  {
    "name": "信州松本 野麦峠スキー場",
    "latitude": 36.0468644,
    "longitude": 137.7227987,
    "region": "長野県"
  },
  {
    "name": "小出スキー場",
    "latitude": 37.2270109,
    "longitude": 138.9506306,
    "region": "新潟県"
  },
  {
    "name": "薬師スキー場",
    "latitude": 37.233232,
    "longitude": 138.9935245,
    "region": "新潟県"
  },
  {
    "name": "古志高原スキー場",
    "latitude": 37.3161587,
    "longitude": 138.884966,
    "region": "新潟県"
  },
  {
    "name": "須原スキー場",
    "latitude": 37.3296649,
    "longitude": 139.0101461,
    "region": "新潟県"
  },
  {
    "name": "雫石スキー場",
    "latitude": 39.7843898,
    "longitude": 140.9177666,
    "region": "岩手県"
  },
  {
    "name": "岩手高原スノーパーク",
    "latitude": 39.8227055,
    "longitude": 140.9651487,
    "region": "岩手県"
  },
  {
    "name": "八幡平リゾート パノラマスキー場",
    "latitude": 39.8838743,
    "longitude": 140.9777429,
    "region": "岩手県"
  },
  {
    "name": "森吉山阿仁スキー場",
    "latitude": 39.965425,
    "longitude": 140.5063774,
    "region": "秋田県"
  },
  {
    "name": "井川スキー場",
    "latitude": 33.9623442,
    "longitude": 133.8855739,
    "region": "徳島県"
  },
  {
    "name": "芸北国際スキー場",
    "latitude": 34.7082208,
    "longitude": 132.2256506,
    "region": "広島県"
  },
  {
    "name": "琴引フォレストパークスキー場",
    "latitude": 35.051906,
    "longitude": 132.771596,
    "region": "島根県"
  },
  {
    "name": "猫山スキー場",
    "latitude": 35.0373052,
    "longitude": 133.1997033,
    "region": "広島県"
  },
  {
    "name": "奥大山スキー場",
    "latitude": 35.3440787,
    "longitude": 133.5592415,
    "region": "鳥取県"
  },
  {
    "name": "津黒高原スキー場",
    "latitude": 35.2567018,
    "longitude": 133.797394,
    "region": "岡山県"
  },
  {
    "name": "ばんしゅう戸倉スキー場",
    "latitude": 35.2852581,
    "longitude": 134.5410806,
    "region": "兵庫県"
  },
  {
    "name": "びわ湖バレイ スキー場",
    "latitude": 35.2134817,
    "longitude": 135.8898309,
    "region": "滋賀県"
  },
  {
    "name": "箱館山スキー場",
    "latitude": 35.438624,
    "longitude": 135.9847323,
    "region": "滋賀県"
  },
  {
    "name": "国境高原スノーパーク",
    "latitude": 35.5350309,
    "longitude": 136.0893578,
    "region": "滋賀県"
  },
  {
    "name": "今庄365スキー場",
    "latitude": 35.7217129,
    "longitude": 136.1421801,
    "region": "福井県"
  },
  {
    "name": "大倉岳高原スキー場",
    "latitude": 36.2793099,
    "longitude": 136.5385185,
    "region": "石川県"
  },
  {
    "name": "白山一里野温泉スキー場",
    "latitude": 36.2623647,
    "longitude": 136.7102448,
    "region": "石川県"
  },
  {
    "name": "蓼科東急スキー場",
    "latitude": 36.0696342,
    "longitude": 138.2577682,
    "region": "長野県"
  },
  {
    "name": "軽井沢プリンスホテルスキー場",
    "latitude": 36.3364391,
    "longitude": 138.6434342,
    "region": "長野県"
  },
  {
    "name": "草津温泉スキー場",
    "latitude": 36.6310083,
    "longitude": 138.574801,
    "region": "群馬県"
  },
  {
    "name": "ヤマボクワイルドスノーパーク",
    "latitude": 36.6727132,
    "longitude": 138.4642577,
    "region": "長野県"
  },
  {
    "name": "草スキー場",
    "latitude": 32.7600245,
    "longitude": 129.8463704,
    "region": "長崎県"
  },
  {
    "name": "三川温泉スキー場",
    "latitude": 37.7178159,
    "longitude": 139.395654,
    "region": "新潟県"
  },
  {
    "name": "ニノックススノーパーク",
    "latitude": 37.9232696,
    "longitude": 139.4794269,
    "region": "新潟県"
  },
  {
    "name": "胎内スキー場",
    "latitude": 38.002729,
    "longitude": 139.5041592,
    "region": "新潟県"
  },
  {
    "name": "富士見スキー場",
    "latitude": 45.3054267,
    "longitude": 141.0440665,
    "region": "北海道"
  },
  {
    "name": "金谷山スキー場",
    "latitude": 37.1040588,
    "longitude": 138.2248603,
    "region": "新潟県"
  },
  {
    "name": "氷ノ山国際スキー場",
    "latitude": 35.3640623,
    "longitude": 134.5284468,
    "region": "兵庫県"
  },
  {
    "name": "ハチ高原スキー場",
    "latitude": 35.3893812,
    "longitude": 134.5307009,
    "region": "兵庫県"
  },
  {
    "name": "おじろスキー場",
    "latitude": 35.4599177,
    "longitude": 134.5188361,
    "region": "兵庫県"
  },
  {
    "name": "但馬牧場公園スキー場",
    "latitude": 35.5155307,
    "longitude": 134.491634,
    "region": "兵庫県"
  },
  {
    "name": "白山セイモアスキー場",
    "latitude": 36.3414239,
    "longitude": 136.6864083,
    "region": "石川県"
  },
  {
    "name": "高山市営飛騨高山スキー場",
    "latitude": 36.1416605,
    "longitude": 137.4350478,
    "region": "岐阜県"
  },
  {
    "name": "平湯温泉スキー場",
    "latitude": 36.1848729,
    "longitude": 137.5593904,
    "region": "岐阜県"
  },
  {
    "name": "金沢市営医王山スキー場",
    "latitude": 36.5257748,
    "longitude": 136.7521008,
    "region": "石川県"
  },
  {
    "name": "立山山麓スキー場",
    "latitude": 36.5681792,
    "longitude": 137.4251708,
    "region": "富山県"
  },
  {
    "name": "鷲ヶ岳スキー場",
    "latitude": 35.9437811,
    "longitude": 136.9314495,
    "region": "岐阜県"
  },
  {
    "name": "しらおスキー場",
    "latitude": 35.8996592,
    "longitude": 136.9392605,
    "region": "岐阜県"
  },
  {
    "name": "めいほうスキー場",
    "latitude": 35.9511687,
    "longitude": 137.029672,
    "region": "岐阜県"
  },
  {
    "name": "谷川岳天神平スキー場",
    "latitude": 36.8254365,
    "longitude": 138.9536905,
    "region": "群馬県"
  },
  {
    "name": "ホワイトバレースキー場",
    "latitude": 36.795636,
    "longitude": 138.9638266,
    "region": "群馬県"
  },
  {
    "name": "日光湯元温泉スキー場",
    "latitude": 36.804537,
    "longitude": 139.4125636,
    "region": "栃木県"
  },
  {
    "name": "長岡市営スキー場",
    "latitude": 37.413044,
    "longitude": 138.8958363,
    "region": "新潟県"
  },
  {
    "name": "栗子国際スキー場",
    "latitude": 37.8266362,
    "longitude": 140.2583318,
    "region": "山形県"
  },
  {
    "name": "奥中山高原スキー場",
    "latitude": 40.0861056,
    "longitude": 141.1821266,
    "region": "岩手県"
  },
  {
    "name": "岩木山百沢スキー場",
    "latitude": 40.6349711,
    "longitude": 140.3265912,
    "region": "青森県"
  },
  {
    "name": "天下森スキー場",
    "latitude": 39.1590399,
    "longitude": 140.6185279,
    "region": "秋田県"
  },
  {
    "name": "七尾コロサスキー場",
    "latitude": 36.9747696,
    "longitude": 136.9594095,
    "region": "石川県"
  },
  {
    "name": "八雲町営スキー場",
    "latitude": 42.2128882,
    "longitude": 140.2337446,
    "region": "北海道"
  },
  {
    "name": "菅平高原パインビークスキー場",
    "latitude": 36.5174249,
    "longitude": 138.3179521,
    "region": "長野県"
  },
  {
    "name": "チセヌプリスキー場",
    "latitude": 42.8739589,
    "longitude": 140.5931421,
    "region": "北海道"
  },
  {
    "name": "ニセコモイワスキー場",
    "latitude": 42.8554041,
    "longitude": 140.6326926,
    "region": "北海道"
  },
  {
    "name": "えんがるロックバレースキー場",
    "latitude": 44.0175348,
    "longitude": 143.4976458,
    "region": "北海道"
  },
  {
    "name": "ジュネス栗駒スキー場",
    "latitude": 39.1605001,
    "longitude": 140.7276584,
    "region": "秋田県"
  },
  {
    "name": "横手山･渋峠スキー場",
    "latitude": 36.675172,
    "longitude": 138.5170179,
    "region": "長野県"
  },
  {
    "name": "かぐらスキー場",
    "latitude": 36.8695049,
    "longitude": 138.7426365,
    "region": "新潟県"
  },
  {
    "name": "志賀高原焼額山スキー場",
    "latitude": 36.751642,
    "longitude": 138.5292927,
    "region": "長野県"
  },
  {
    "name": "朽木スキー場",
    "latitude": 35.3276033,
    "longitude": 135.9396053,
    "region": "滋賀県"
  }
]